관리기관명,발급기명,설치장소주소,설치장소상세위치,위도,경도,평일운영시작시각,평일운영종료시각,공휴일운영시작시각,공휴일운영종료시각
제주특별자치도 서귀포시,마라도가는여객선,제주특별자치도 서귀포시 대정읍 송악관광로 424[제주특별자치도 서귀포시 대정읍 상모리133번지 2호],마라도가는여객선 터마널 내,33.20739831,126.2905198,8:00,18:00,8:00,18:00
제주특별자치도 서귀포시,모슬포항,"제주특별자치도 서귀포시 대정읍 최남단해안로 120, 모슬포항 여객선대합실",여객터미널내 대합실,33.21006508,126.2583798,9:00,18:00,9:00,18:00
제주특별자치도 서귀포시,대정읍사무소2 KIOSK,"제주특별자치도 서귀포시 대정읍 하모중앙로 20, 대정읍사무소",민원실입구,33.22650565,126.251917,0:00,24:00:00,0:00,24:00:00
제주특별자치도 서귀포시,중문농협 강정지점,제주특별자치도 서귀포시 이어도로 594 (강정동),농협 안,33.235395,126.4800556,6:00,24:00:00,6:00,24:00:00
제주특별자치도 서귀포시,서귀포항 잠수함대합실,제주특별자치도 서귀포시 남성중로 40(서귀동),서귀포항 잠수함 대합실,33.23920117,126.5584239,9:00,18:00,9:00,18:00
제주특별자치도 서귀포시,서귀포농협 법환지점,제주특별자치도 서귀포시 이어도로 965(법환동),창구 내부,33.24060859,126.5160781,6:00,24:00:00,6:00,24:00:00
제주특별자치도 서귀포시,제주국제컨벤션센터KIOSK,제주특별자치도 서귀포시 중문관광로 224(중문동),제주국제컨벤션센터,33.24128964,126.4244429,9:00,21:00,9:00,21:00
제주특별자치도 서귀포시,안덕농협,"제주특별자치도 서귀포시 안덕면 화순로 104, 안덕농협",안덕농협 내,33.24679861,126.3351893,6:00,24:00:00,6:00,24:00:00
제주특별자치도 서귀포시,대륜동주민센터,제주특별자치도 서귀포시 일주동로 9185(법환동),민원실,33.24818748,126.5111842,0:00,24:00:00,0:00,24:00:00
제주특별자치도 서귀포시,서귀포축협신시가지점,제주특별자치도 서귀포시 서호남로 65(서호동),ATM기기 옆,33.25041292,126.5195488,6:00,23:50,6:00,23:50
제주특별자치도 서귀포시,대천동주민센터,제주특별자치도 서귀포시 도순로 44(도순동),주민센터 앞,33.25076206,126.4775399,0:00,24:00:00,0:00,24:00:00
제주특별자치도 서귀포시,중문농협,"제주특별자치도 서귀포시 천제연로 199, 중문농협 (중문동)",창구 내부,33.25184636,126.4260574,6:00,24:00:00,6:00,24:00:00
제주특별자치도 서귀포시,서귀포시청 KIOSK,제주특별자치도 서귀포시 중앙로 105(서홍동),안내데스크 옆,33.25395471,126.5595883,0:00,24:00:00,0:00,24:00:00
제주특별자치도 서귀포시,제주은행KIOSK 동홍지점,"제주특별자치도 서귀포시 일주동로 8560, 1층 (동홍동)",제주은행,33.25505894,126.573583,6:00,23:00,6:00,23:00
제주특별자치도 서귀포시,제주세무서 서귀포지서(구시청2청사) KIOSK,제주특별자치도 서귀포시 신중로 55(법환동),동쪽 입구,33.25558176,126.5105274,9:00,18:00,,
제주특별자치도 서귀포시,서귀포농협 서부지점,"제주특별자치도 서귀포시 서호호근로 96, 서귀포시농협 서부지소 (호근동)",창구 입구,33.25589566,126.524553,6:00,24:00:00,6:00,24:00:00
제주특별자치도 서귀포시,제주특별자치도 서귀포의료원,"제주특별자치도 서귀포시 장수로 47, 서귀포의료원 (동홍동)",1층 안내데스크 옆,33.25598099,126.5629489,0:00,24:00:00,0:00,24:00:00
제주특별자치도 서귀포시,안덕면_무인 KIOSK,제주특별자치도 서귀포시 안덕면 화순서서로 74,안덕면사무소,33.25758153,126.3306244,0:00,24:00:00,0:00,24:00:00
제주특별자치도 서귀포시,동홍동주민센터 KIOSK,제주특별자치도 서귀포시 동홍로 104(동홍동),민원실,33.25785315,126.5689194,0:00,24:00:00,0:00,24:00:00
제주특별자치도 서귀포시,영천동 주민센터,"제주특별자치도 서귀포시 토평로 15, 영천동주민센터 (토평동)",현관 우측 옥외부스,33.26876029,126.5866437,0:00,24:00:00,0:00,24:00:00
제주특별자치도 서귀포시,남원읍 위미문화의집,"제주특별자치도 서귀포시 남원읍 태위로 105, 위미문화의집",위미문화의 집 내,33.27501048,126.6585881,0:00,24:00:00,,
제주특별자치도 서귀포시,남원읍_무인 KIOSK,제주특별자치도 서귀포시 남원읍 태위로 695[제주특별자치도 서귀포시 남원읍 남원리205번지 1호],남원읍사무소,33.2798959,126.720677,0:00,24:00:00,0:00,24:00:00
제주특별자치도 서귀포시,남원읍사무소2 KIOSK,"제주특별자치도 서귀포시 남원읍 태위로 695, 남원읍사무소",읍사무소 입구,33.2798959,126.720677,0:00,24:00:00,0:00,24:00:00
제주특별자치도 서귀포시,대정영어교육도시내(대정읍 이동민원실),제주특별자치도 서귀포시 대정읍 에듀시티로 86,대정영어교육도시내 대정읍 이동민원실 입구,33.28794236,126.2818297,0:00,24:00:00,0:00,24:00:00
제주특별자치도 제주시,한경면 고산이동민원실 ,"제주특별자치도 제주시 한경면 칠전로 37, 한경면 고산이동민원실",민원실 입구,33.30047583,126.1837079,0:00,24:00:00,0:00,24:00:00
제주특별자치도 서귀포시,표선면사무소 KIOSK,제주특별자치도 서귀포시 표선면 표선중앙로 74,표선면사무소,33.32668806,126.8310427,0:00,24:00:00,0:00,24:00:00
제주특별자치도 제주시,한경면사무소,제주특별자치도 제주시 한경면 두신로 84,한경면사무소 입구 우측,33.35011052,126.184105,0:00,24:00:00,0:00,24:00:00
제주특별자치도 서귀포시,성산읍 신산청소년문화의집,"제주특별자치도 서귀포시 성산읍 일주동로 5101-1, 신산청소년문화의집",문화의집 입구,33.38124248,126.8768109,0:00,24:00:00,0:00,24:00:00
제주특별자치도 제주시,한림읍사무소,제주특별자치도 제주시 한림읍 한림상로 132,[한림읍사무소 민원봉사 실내서측],33.41028446,126.266987,0:00,24:00:00,0:00,24:00:00
제주특별자치도 제주시,한림읍사무소 (2),"제주특별자치도 제주시 한림읍 한림상로 132, 한림읍사무소",한림읍사무소 입구,33.41028446,126.266987,0:00,24:00:00,0:00,24:00:00
제주특별자치도 서귀포시,성산읍사무소 KIOSK,제주특별자치도 서귀포시 성산읍 일주동로 4330,성산읍사무소 민원실,33.44282426,126.9114876,8:00,22:00,8:00,22:00
제주특별자치도 제주시,애월읍사무소,제주특별자치도 제주시 애월읍 일주서로 6322,애월읍사무소 입구,33.46214973,126.3291845,0:00,24:00:00,0:00,24:00:00
제주특별자치도 제주시,제주대학교병원,제주특별자치도 제주시 아란13길 15(아라일동)[제주특별자치도 제주시 아라일동 1번지],제주대학교병원 1층 제증명발급 쪽,33.46720852,126.545201,0:00,24:00:00,0:00,24:00:00
제주특별자치도 제주시,구좌읍 송당리사무소,제주특별자치도 제주시 구좌읍 중산간동로 2210,송당리사무소 입구 좌측,33.47138628,126.7791793,6:00,22:00,6:00,22:00
제주특별자치도 서귀포시,성산포항,제주특별자치도 서귀포시 성산읍 성산등용로 112-7,여객터미널내 대합실,33.47191267,126.9331048,9:00,18:00,9:00,18:00
제주특별자치도 제주시,아라동주민센터,제주특별자치도 제주시 인다8길 5(아라일동),아라동 주민센터 외부,33.47633835,126.5452696,0:00,24:00:00,0:00,24:00:00
제주특별자치도 제주시,아라동주민센터(2),제주특별자치도 제주시 인다8길 5(아라일동),아라동주민센터 민원실 내,33.47633835,126.5452696,8:30,18:00,,
제주특별자치도 제주시,애월읍 하귀이동민원실,제주특별자치도 제주시 애월읍 하귀로21길 30,1층 민원실 입구 좌측,33.47963352,126.4033249,0:00,24:00:00,0:00,24:00:00
제주특별자치도 제주시,노형동주민센터,"제주특별자치도 제주시 노형9길 9-4(노형동, 노형동주민센터)",민원실,33.48288157,126.4769921,0:00,24:00:00,0:00,24:00:00
제주특별자치도 제주시,노형동주민센터2,"제주특별자치도 제주시 노형9길 9-4(노형동, 노형동주민센터)",민원실 입구 우측,33.48288157,126.4769921,0:00,24:00:00,0:00,24:00:00
제주특별자치도 제주시,제주도청2,제주특별자치도 제주시 문연로 6(연동),제주도청 민원실 외부,33.48822072,126.4977226,0:00,24:00:00,0:00,24:00:00
제주특별자치도 제주시,제주도청,"제주특별자치도 제주시 문연로 6, 제주특별자치도청 (연동)",제주도청 민원실 내부,33.48822072,126.4977226,8:30,18:00,,
제주특별자치도 제주시,연동주민센터,제주특별자치도 제주시 신대로 101(연동),연동주민센터 입구 우측,33.48837823,126.496923,0:00,24:00:00,0:00,24:00:00
제주특별자치도 제주시,연동주민센터(2),제주특별자치도 제주시 신대로 101(연동),연동주민센터 민원실 내,33.48837823,126.496923,8:30,18:00,,
제주특별자치도 제주시,제주한라병원,"제주특별자치도 제주시 도령로 65, 한라병원 (연동)",병원 1층 입구,33.49047016,126.4847796,8:00,22:00,8:00,22:00
제주특별자치도 제주시,제주종합청사,제주특별자치도 제주시 청사로 59(도남동),정부청사 내,33.49086505,126.5250585,9:00,18:00,,
제주특별자치도 제주시,봉개동주민센터,"제주특별자치도 제주시 봉개북1길 15, 봉개동주민센터 (봉개동)",주민센터 입구 좌측,33.49166598,126.5947311,0:00,24:00:00,0:00,24:00:00
제주특별자치도 제주시,외도동주민센터,제주특별자치도 제주시 일주서로 7350(외도이동),외도동주민센터 내,33.49292579,126.4321221,0:00,24:00:00,0:00,24:00:00
제주특별자치도 제주시,제주지방법원,제주특별자치도 제주시 남광북5길 3(이도이동),법원 민원실입구,33.49409609,126.5356223,9:00,18:00,,
제주특별자치도 제주시,오라동 주민센터,"제주특별자치도 제주시 오라로10길 6, 오라동주민센터 (오라이동)",1층 정문과 민원실 입구 사이,33.49514738,126.5115919,0:00,24:00:00,0:00,24:00:00
제주특별자치도 제주시,이도2동행정복지센터(2),제주특별자치도 제주시 오복3길 8(이도이동),이도2동주민센터 내부,33.49706961,126.5353012,8:30,18:00,,
제주특별자치도 제주시,이도2동행정복지센터(1),제주특별자치도 제주시 오복3길 8(이도이동),이도2동행정복지센터 입구,33.49706961,126.5353012,0:00,24:00:00,0:00,24:00:00
제주특별자치도 제주시,이호동주민센터,제주특별자치도 제주시 도리로 57 (이호일동),주민센터 출입구 중간문,33.49895319,126.4578718,0:00,24:00:00,0:00,24:00:00
제주특별자치도 제주시,경제통상진흥원,제주특별자치도 제주시 연삼로 473 (이도이동),청사 1층 로비,33.49938757,126.5406596,9:00,18:00,,
제주특별자치도 제주시,제주시청(1),"제주특별자치도 제주시 광양9길 3, 제주시청 종합민원실 (이도이동)",종합민원실 입구,33.50002962,126.5299443,0:00,24:00:00,0:00,24:00:00
제주특별자치도 제주시,제주시청(2),"제주특별자치도 제주시 광양9길 3, 제주시청 종합민원실 (이도이동)",종합민원실 입구,33.50002962,126.5299443,0:00,24:00:00,0:00,24:00:00
제주특별자치도 제주시,탐라장애인회관 ,제주특별자치도 제주시 광양4길 32(이도일동),탐라장애인복지회관 로비,33.501412,126.5251149,5:00,21:00,5:00,21:00
제주특별자치도 제주시,도두동주민센터,"제주특별자치도 제주시 도두1길 9-1, 도두동주민센터 (도두일동)",주민센터 출입구 외부 부스,33.50282934,126.4680924,0:00,24:00:00,0:00,24:00:00
제주특별자치도 제주시,삼도1동주민센터,"제주특별자치도 제주시 전농로 40, 삼도일동 행정복지센터 (삼도일동)",삼도1동주민센터 외부,33.5041441,126.5173684,0:00,24:00:00,0:00,24:00:00
제주특별자치도 제주시,제주고용센터,"제주특별자치도 제주시 중앙로 165, 제주특별자치도 고용복지플러스센터 (이도일동)",1층 출입구,33.50438122,126.5270712,8:00,19:00,,
제주특별자치도 제주시,제주공항(1),제주특별자치도 제주시 공항로 2(용담이동),제주공항 3층 안내카운터 앞,33.50593647,126.4959513,5:00,22:00,5:00,22:00
제주특별자치도 제주시,제주공항(2),제주특별자치도 제주시 공항로 2(용담이동), 제주공항 3층 동쪽 에어부산 카운터 앞(1번 게이트앞),33.50593647,126.4959513,5:00,22:00,5:00,22:00
제주특별자치도 제주시,우도면사무소,제주특별자치도 제주시 우도면 우도로 153,우도면사무소 민원대 우측,33.50647097,126.9529777,8:00,22:00,8:00,22:00
제주특별자치도 제주시,이도1동주민센터,"제주특별자치도 제주시 중앙로25길 17, 이도1동주민센터 (이도일동)",주민센터 입구 좌측,33.50686539,126.5267223,0:00,24:00:00,0:00,24:00:00
제주특별자치도 제주시,하나새마을금고,"제주특별자치도 제주시 서사로 40, 1층 (삼도일동)",하나새마을금고 주민휴게공간,33.50869217,126.5196644,9:00,20:00,9:00,19:00
제주특별자치도 제주시,용담1동주민센터,제주특별자치도 제주시 용남3길 11(용담일동),주민센터 입구 우측,33.50911128,126.5132777,0:00,24:00:00,0:00,24:00:00
제주특별자치도 제주시,용담2동주민센터,제주특별자치도 제주시 흥운길 27(용담이동),용담2동주민센터입구,33.511492,126.5116704,0:00,24:00:00,0:00,24:00:00
제주특별자치도 제주시,일도2동사무소,"제주특별자치도 제주시 삼성로 134, 일도2동주민센터 1층 (일도이동)",일도2동주민센터 1층,33.51168891,126.5380938,0:00,24:00:00,0:00,24:00:00
제주특별자치도 제주시,제주중앙지하상가,제주특별자치도 제주시 중앙로 지하 60(일도일동),지하상가 중앙화장실 입구,33.51315888,126.5246321,7:00,22:00,7:00,22:00
제주특별자치도 제주시,건입동주민센터,"제주특별자치도 제주시 만덕로 18, 건입동주민센터 (건입동)",건입동주민센터 입구 우측,33.51504972,126.5315034,0:00,24:00:00,0:00,24:00:00
제주특별자치도 제주시,제주항연안여객터미널(2부두) ,제주특별자치도 제주시 임항로 111(건입동),2부두 여객터미널 매표소,33.52004074,126.5342262,6:00,20:30,6:00,20:30
제주특별자치도 제주시,화북동주민센터,제주특별자치도 제주시 진남로6길 17(화북일동),화북동주민센터 입구 좌측,33.52021407,126.5653711,0:00,24:00:00,0:00,24:00:00
제주특별자치도 제주시,삼양동주민센터,제주특별자치도 제주시 지석13길 6(삼양이동),삼양동주민센터 입구,33.52182071,126.5855751,0:00,24:00:00,0:00,24:00:00
제주특별자치도 제주시,제주항국제여객터미널,제주특별자치도 제주시 임항로 191(건입동),제주국제여객터미널 1층,33.5219764,126.5434403,6:00,20:30,6:00,20:30
제주특별자치도 제주시,구좌읍사무소,제주특별자치도 제주시 구좌읍 일주동로 3116,구좌읍사무소 입구 우측,33.52213927,126.8518858,0:00,24:00:00,0:00,24:00:00
제주특별자치도 제주시,조천읍사무소,제주특별자치도 제주시 조천읍 신북로 194,조천읍사무소내 민원계 앞,33.53482434,126.6342573,0:00,24:00:00,0:00,24:00:00
제주특별자치도 제주시,조천읍 함덕이동민원실,"제주특별자치도 제주시 조천읍 신북로 516, 함덕리사무소",함덕리사무소 1층 내부,33.54172629,126.6647398,0:00,24:00:00,0:00,24:00:00
제주특별자치도 제주시,구좌읍 김녕이동민원실,"제주특별자치도 제주시 구좌읍 일주동로 2045, 김녕이동민원실",민원실 입구,33.55157761,126.7487906,0:00,24:00:00,0:00,24:00:00
제주특별자치도 제주시,추자면사무소,제주특별자치도 제주시 추자면 추자로 26,추자면사무소 민원대 앞,33.9635313,126.2960784,8:00,22:00,8:00,22:00
전라남도 완도군,보길면사무소,"전라남도 완도군 보길면 청별길 26-1, 보길면사무소",민원실 내부,34.16945696,126.567539,0:00,24:00:00,0:00,24:00:00
전라남도 완도군,소안면사무소,"전라남도 완도군 소안면 비자2길 38-3, 소안면사무소",민원실,34.17430211,126.6507757,9:00,18:00,9:00,18:00
전라남도 완도군,노화읍사무소,"전라남도 완도군 노화읍 노화로 813, 노화읍사무소",노화읍사무소 옥외부스,34.17754215,126.5757859,0:00,24:00:00,0:00,24:00:00
전라남도 완도군,청산면사무소,"전라남도 완도군 청산면 도청4길 19-3, 청산면사무소",청산면사무소 옥외부스,34.18021319,126.8586009,0:00,24:00:00,0:00,24:00:00
전라남도 해남군,땅끝항,전라남도 해남군 송지면 땅끝마을길 70-7,땅끝안내소,34.29839495,126.5290438,6:00,20:00,6:00,20:00
전라남도 진도군,창유항 여객터미널,전라남도 진도군 조도면 어류포길 1-1,창유항 여객터미널 입구 좌측,34.30620753,126.0524805,6:00,18:30,6:00,18:30
전라남도 완도군,생일면사무소,"전라남도 완도군 생일면 생일로 582, 생일면사무소",민원실 외부,34.3330216,126.9973705,0:00,24:00:00,0:00,24:00:00
전라남도 완도군,신지면사무소,"전라남도 완도군 신지면 한들길 11, 신지면사무소",민원실 외부,34.33486832,126.8272944,0:00,24:00:00,0:00,24:00:00
전라남도 완도군,금일읍사무소,"전라남도 완도군 금일읍 금일로 394, 금일읍사무소",금일읍사무소 옥외부스,34.34891182,127.0294934,0:00,24:00:00,0:00,24:00:00
전라남도 해남군,송지면사무소,전라남도 해남군 송지면 산정1길 96,송지면사무소 민원실,34.3696505,126.5192007,8:00,20:00,8:00,18:00
전라남도 완도군,완도군 약산면 당목항,전라남도 완도군 약산면 당목길 135[전라남도 완도군 약산면 해동리737번지 17호],완도군 약산면 당목항 대합실내,34.37837501,126.9461705,0:00,24:00:00,0:00,24:00:00
전라남도 완도군,군외면사무소,"전라남도 완도군 군외면 청해진서로 2148, 군외면사무소",민원실 외부,34.38938117,126.6474857,0:00,24:00:00,0:00,24:00:00
전라남도 완도군,약산면사무소,"전라남도 완도군 약산면 약산로 367, 약산면사무소",민원실 외부,34.393625,126.8981623,0:00,24:00:00,0:00,24:00:00
전라남도 완도군,고금면사무소,"전라남도 완도군 고금면 농상도남길 24, 고금면사무소",민원실 내부,34.3949209,126.8043225,0:00,24:00:00,0:00,24:00:00
전라남도 해남군,북평면사무소,전라남도 해남군 북평면 달량진길 8,북평면사무소 민원실,34.4083213,126.6256247,8:00,20:00,8:00,18:00
전라남도 진도군,지산면사무소,전라남도 진도군 지산면 지산민속로 9[전라남도 진도군 지산면 인지리341번지 1호],민원실,34.42586922,126.1672597,9:00,20:00,9:00,18:00
전라남도 완도군,금당면사무소,"전라남도 완도군 금당면 금당로 50-1, 금당면사무소",민원실 외부,34.42978915,127.0708559,0:00,24:00:00,0:00,24:00:00
전라남도 진도군,의신면사무소,전라남도 진도군 의신면 돈지1길 56-5[전라남도 진도군 의신면 돈지리308번지 1호],민원실,34.43910295,126.2838355,9:00,20:00,9:00,18:00
전라남도 강진군,마량면사무소,"전라남도 강진군 마량면 마량8길 20, 마량면사무소",1층입구,34.45090063,126.8187463,0:00,24:00:00,0:00,24:00:00
전라남도 해남군,현산농협,"전라남도 해남군 현산면 현산북평로 110, 현산농협",현산농협 내,34.45783947,126.5531716,8:00,20:00,,
전라남도 고흥군,금산면_무인,전라남도 고흥군 금산면 거금중앙길 84,금산면사무소 민원실,34.45915257,127.125275,8:30,18:00,8:30,18:00
전라남도 해남군,현산면사무소,전라남도 해남군 현산면 현산북평로 86,현산면사무소 민원실,34.45989831,126.5535192,8:00,20:00,8:00,18:00
전라남도 고흥군,거금도농협_금산면,"전라남도 고흥군 금산면 금산중촌길 7-2, 거금도 농협",365코너,34.46101775,127.1268859,0:00,24:00:00,0:00,24:00:00
전라남도 고흥군,봉래면_무인,전라남도 고흥군 봉래면 나로도항길 16,봉래면사무소 민원실,34.46356067,127.4587911,0:00,24:00:00,0:00,24:00:00
전라남도 해남군,북일면사무소,전라남도 해남군 북일면 장고봉로 5,북일면사무소 민원실,34.46419622,126.6760913,8:00,20:00,8:00,18:00
전라남도 고흥군,나로도 연안여객선터미널,"전라남도 고흥군 봉래면 나로도항길 120-7, 나로도연안여객선터미널",터미널 1층 내,34.4657701,127.4536783,6:30,18:00,6:30,18:00
전라남도 진도군,한국농어촌공사 진도지사,"전라남도 진도군 진도읍 남산2길 44, 한국농어촌공사 진도지사",한국농어촌공사 진도지사 현관 로비,34.47549375,126.2635851,9:00,18:00,,
전라남도 진도군,진도읍행정복지센터,전라남도 진도군 진도읍 남동1길 46[전라남도 진도군 진도읍 남동리776번지 1호 (진도읍사무소)],현관 입구 우측,34.48077529,126.2629033,9:00,20:00,9:00,18:00
전라남도 진도군,진도읍행정복지센터2,"전라남도 진도군 진도읍 남동1길 46, 진도읍 행정복지센터",진도읍행정복지센터 내,34.48077529,126.2629033,9:00,20:00,9:00,18:00
전라남도 장흥군,회진면,전라남도 장흥군 회진면 회진로 470,면사무소 내부 입구 좌측,34.48290692,126.9423541,9:00,18:00,,
전라남도 진도군,진도군청,전라남도 진도군 진도읍 철마길 25[전라남도 진도군 진도읍 성내리64번지 1호 진도군청],진도군 민원봉사과 내,34.48683211,126.2635764,0:00,24:00:00,0:00,24:00:00
전라남도 해남군,화산면사무소,전라남도 해남군 화산면 해남화산로 1061,화산면사무소 민원실,34.49136284,126.5151975,8:00,20:00,8:00,18:00
전라남도 장흥군,대덕읍,전라남도 장흥군 대덕읍 대대로 929,입구(동쪽),34.49941506,126.8879556,0:00,24:00:00,0:00,24:00:00
전라남도 고흥군,동일면_무인,전라남도 고흥군 동일면 양화길 8,동일면사무소 민원실,34.50211258,127.4672442,8:30,18:00,8:30,18:00
전라남도 진도군,쉬미항 여객선 대합실,"전라남도 진도군 진도읍 서부해안로 411, 쉬미항여객선터미널",터미널 내 대합실,34.50510605,126.2002238,6:00,18:30,6:00,18:30
전라남도 고흥군,도화면_무인,전라남도 고흥군 도화면 오치길 37,도화면사무소 민원실,34.51015057,127.3173087,8:30,18:00,8:30,18:00
전라남도 해남군,삼산면사무소,전라남도 해남군 삼산면 신기큰길 7,삼산면사무소 민원실,34.52115229,126.6097544,8:00,20:00,8:00,18:00
전라남도 고흥군,녹동여객터미널_무인,전라남도 고흥군 도양읍 비봉로 266-4,1층 로비 안내데스크 앞,34.52351908,127.1441882,5:00,22:00,5:00,22:00
전라남도 고흥군,녹동농협,"전라남도 고흥군 도양읍 우주항공로 21, 녹동농협하나로마트",365코너,34.52576427,127.1404472,8:00,21:00,8:30,21:00
전라남도 고흥군,도양읍_무인,전라남도 고흥군 도양읍 녹동남촌2길 14,도양읍사무소 민원실,34.52953627,127.1389838,8:30,18:00,8:30,18:00
전라남도 진도군,군내 금골(선진농협 내),"전라남도 진도군 군내면 진도대로 7958, 선진농협 군내지점",선진농협 군내지점 내 입구쪽,34.53735251,126.2981869,9:00,17:00,,
전라남도 장흥군,관산읍,전라남도 장흥군 관산읍 관산로 71,민원실 앞,34.56147251,126.9388051,8:00,19:00,9:00,18:00
전라남도 해남군,해남읍사무소1,전라남도 해남군 해남읍 남부순환로 114,해남읍사무소 민원실 ,34.5651781,126.5991883,8:00,20:00,8:00,18:00
전라남도 해남군,해남읍사무소2,전라남도 해남군 해남읍 남부순환로 114,해남읍사무소 민원실,34.5651781,126.5991883,8:00,20:00,8:00,18:00
전라남도 고흥군,도덕면_무인,전라남도 고흥군 도덕면 고흥로 499,도덕면사무소 민원실,34.56670218,127.1779716,8:30,18:00,8:30,18:00
전라남도 해남군,옥천면사무소,전라남도 해남군 옥천면 해강로 5,옥천면사무소 민원실,34.56747059,126.6478689,8:00,20:00,8:00,18:00
전라남도 해남군,해남세무서,전라남도 해남군 해남읍 중앙1로 18,해남세무서 민원실 내,34.57131431,126.6061463,9:00,18:00,,
전라남도 고흥군,포두면_무인,전라남도 고흥군 포두면 우주로 597,포두면사무소 민원실,34.5714743,127.3410636,8:30,18:00,8:30,18:00
전라남도 해남군,농어촌공사 해남완도지사,"전라남도 해남군 해남읍 해리1길 7, 한국농어촌공사해남지점",한국농어촌공사해남지점,34.5725626,126.6109185,8:00,18:30,,
전라남도 해남군,해남군청,전라남도 해남군 해남읍 군청길 4,해남군청 민원실,34.57319659,126.5999599,8:00,20:00,8:00,18:00
전라남도 해남군,해남군청2,"전라남도 해남군 해남읍 군청길 4, 해남군청",해남군민광장 출입구 옆,34.57319659,126.5999599,0:00,24:00:00,0:00,24:00:00
전라남도 해남군,해남법원,전라남도 해남군 해남읍 중앙1로 330,해남법원 등기소 ,34.57505286,126.59094,9:00,18:00,,
전라남도 고흥군,풍양면_무인,전라남도 고흥군 풍양면 풍양로 5,풍양면사무소 민원실,34.57573836,127.2419584,8:30,18:00,8:30,18:00
전라남도 해남군,황산면사무소,전라남도 해남군 황산면 시등로 70,황산면사무소 민원실,34.57692464,126.4363054,8:00,20:00,8:00,18:00
전라남도 해남군,우수영항,전라남도 해남군 문내면 우수영안길 96,우수영여객선터미널 대합실 내,34.58842174,126.3114871,6:00,20:00,6:00,20:00
전라남도 고흥군,한국농어촌공사고흥지부,"전라남도 고흥군 고흥읍 고흥로 1551, 한국농어촌공사 고흥지부",1층 로비,34.59432265,127.2727839,8:30,18:00,,
전라남도 해남군,문내면사무소,전라남도 해남군 문내면 동영길 10,문내면사무소 민원실,34.59708105,126.3141905,8:00,20:00,8:00,18:00
전라남도 여수시,신기항 여객터미널(돌산),전라남도 여수시 돌산읍 신기길 90,여객터미널 대합실 내부,34.59969094,127.7443058,6:00,18:00,6:00,18:00
전라남도 고흥군,영남면_무인,전라남도 고흥군 영남면 해맞이로 10,영남면사무소 민원실,34.60203627,127.4559817,8:30,18:00,8:30,18:00
전라남도 고흥군,군청민원실_무인,전라남도 고흥군 고흥읍 고흥군청로 1,고흥군청 종합민원실,34.60459652,127.2754763,0:00,24:00:00,0:00,24:00:00
전라남도 고흥군,고흥읍_무인,전라남도 고흥군 고흥읍 터미널길 11,고흥읍사무소 민원실,34.60626693,127.280677,8:30,18:00,8:30,18:00
전라남도 고흥군,농협은행 고흥군지부,전라남도 고흥군 고흥읍 봉황길 2,365코너,34.61068822,127.2843327,0:00,24:00:00,0:00,24:00:00
전라남도 장흥군,용산면,"전라남도 장흥군 용산면 장흥대로 2467, 강진소방서용산119지역대, 용산면사무소",1층 민원실 입구,34.61499475,126.9138313,8:00,22:00,8:00,22:00
전라남도 신안군,우이도출장소,전라남도 신안군 도초면 우이진리길 41-8,우이도출장소,34.61854031,125.85334,9:00,18:00,,
전라남도 여수시,백야항 여객터미널(화정면),전라남도 여수시 화정면 백야해안길 73,여객터미널 대합실 내부,34.62007087,127.6410841,6:00,18:00,6:00,18:00
전라남도 해남군,마산면사무소,전라남도 해남군 마산면 마산로 445,마산면사무소 민원실,34.62164408,126.5681404,8:00,20:00,8:00,18:00
전라남도 강진군,강진읍민원실 ,강진군 강진읍 초지길 21,강진읍사무소 입구,34.6358247,126.7735922,0:00,24:00:00,0:00,24:00:00
전라남도 강진군,강진버스여객터미널,"전라남도 강진군 강진읍 영랑로 35, 강진버스여객터미널",매표소 주변,34.63852178,126.7678782,7:00,22:00,7:00,22:00
전라남도 강진군,강진군청민원실1,전라남도 강진군 강진읍 탐진로 111,강진군청 민원실 출입구,34.64172515,126.7673259,9:00,18:00,,
전라남도 강진군,강진군청민원실2 ,전라남도 강진군 강진읍 탐진로 111, 강진군청 민원실 출입구,34.64172515,126.7673259,0:00,24:00:00,0:00,24:00:00
전라남도 해남군,산이면사무소,"전라남도 해남군 산이면 초두길 6, (산이면사무소 임시청사)",산이면사무소(임시청사) 민원실,34.64508261,126.4477344,8:00,20:00,8:00,18:00
전라남도 해남군,계곡면사무소,전라남도 해남군 계곡면 해남로 1442,계곡면사무소 민원실,34.64510839,126.6595276,8:00,20:00,8:00,18:00
전라남도 고흥군,두원면_무인,전라남도 고흥군 두원면 두원로 480-1,두원면사무소 민원실,34.64675009,127.2742307,8:30,18:00,8:30,18:00
전라남도 장흥군,안양면,전라남도 장흥군 안양면 안양로 125,안양면사무소 민원실 내부,34.65018416,126.9739217,8:00,19:00,9:00,18:00
전라남도 고흥군,점암면_무인,전라남도 고흥군 점암면 모룡길 48,점암면사무소 민원실,34.65252462,127.3796443,8:30,18:00,8:30,18:00
전라남도 보성군,회천면사무소,전라남도 보성군 회천면 남부관광로 2295,전라남도 보성군 회천면 남부관광로 2295,34.66876366,127.0853424,8:30,18:30,,
전라남도 해남군,화원면사무소,전라남도 해남군 화원면 금평길 32,화원면사무소 민원실,34.67109752,126.3285129,8:00,20:00,8:00,18:00
전라남도 장흥군,장흥읍,전라남도 장흥군 장흥읍 칠거리예양로 83[전라남도 장흥군 장흥읍 기양리110번지],장흥읍사무소 민원실 내,34.67976233,126.9026698,8:30,18:00,8:30,18:00
전라남도 장흥군,장흥읍,"전라남도 장흥군 장흥읍 칠거리예양로 83, 장흥읍사무소",민원실 내부,34.67976233,126.9026698,8:00,18:00,,
전라남도 고흥군,과역면_무인,전라남도 고흥군 과역면 송학큰길 52,과역면사무소 민원실,34.68128348,127.3598719,8:30,18:00,8:30,18:00
전라남도 신안군,흑산항 여객터미널,"전라남도 신안군 흑산면 예리1길 41-19, 흑산항여객터미널",1층 매표소 옆 ,34.68455895,125.4424044,7:00,19:00,7:00,19:00
전라남도 강진군,성전면사무소,"전라남도 강진군 성전면 예향로 16, 성전면사무소",1층 입구,34.69268997,126.7090569,0:00,24:00:00,0:00,24:00:00
전라남도 영암군,미암면 행정복지센터,"전라남도 영암군 미암면 미중로 39, 미암면 행정복지센터",민원실 좌측,34.69925908,126.5715056,9:00,18:00,9:00,18:00
전라남도 신안군,복호항 여객터미널,"전라남도 신안군 안좌면 감바위길 2-7, 안좌 복호 여객선터미널",여객터미널 매표소,34.70027845,126.1668569,5:00,21:00,5:00,21:00
전라남도 여수시,화양면사무소,"전라남도 여수시 화양면 나진길 16-10, 화양면사무소",1층내부,34.70815876,127.613547,9:00,18:00,,
경상남도 남해군,미조면행정복지센터,경상남도 남해군 미조면 미송로 60,미조면사무소 출입구,34.71203221,128.0459923,6:00,23:55,6:00,23:55
전라남도 보성군,웅치면사무소,전라남도 보성군 웅치면 일림로 1001,웅치면사무소 내,34.71611722,127.020377,8:30,18:30,,
전라남도 신안군,두리선착장,전라남도 신안군 안좌면 소곡두리길 284,현관,34.71721138,126.117046,8:00,18:00,8:00,18:00
전라남도 여수시,여수농협 우두지점,전라남도 여수시 돌산읍 강남4길 55,1층내부,34.72227545,127.7519008,9:00,16:30,,
전라남도 장흥군,부산면,"전라남도 장흥군 부산면 부유로 30, 부산면사무소",1층 민원실 입구 좌측,34.72340389,126.9033979,8:50,18:00,,
경상남도 남해군,상주면행정복지센터,경상남도 남해군 상주면 남해대로 705,상주면사무소 입구,34.72396467,127.9854225,6:00,23:55,6:00,23:55
전라남도 여수시,월호동주민센터,"전라남도 여수시 신월로 598, 월호동주민자치쎈터 (신월동)",1층내부,34.72615352,127.7117821,9:00,18:00,,
전라남도 영암군,학산면 행정복지센터,"전라남도 영암군 학산면 독천로 193-1, 학산면 행정복지센터",학산면 행정복지센터 내,34.72642456,126.5701275,0:00,24:00:00,0:00,24:00:00
전라남도 여수시,롯데마트 국동점,전라남도 여수시 국포1로 36(국동),출입구 입장 후 은행ATM기 옆 위치,34.72837725,127.7215295,10:00,23:00,10:00,23:00
전라남도 고흥군,남양면_무인 ,전라남도 고흥군 남양면 남양희망길 19,남양면사무소 민원실,34.72875307,127.339702,8:30,18:30,8:30,18:30
경상남도 거제시,매물도여객선터미널,경상남도 거제시 남부면 저구해안길 60,여객선터미널 내(1층),34.73080192,128.6067572,6:00,17:00,6:00,17:00
경상남도 거제시,남부면사무소,경상남도 거제시 남부면 남부해안로 30[경상남도 거제시 남부면 저구리70번지],민원실 입구,34.73222646,128.610098,6:00,24:00:00,6:00,24:00:00
전라남도 여수시,여수연안여객선터미널,전라남도 여수시 여객선터미널길 17(교동),여수연안여객선터미널 정문으로 입장시 바로 우측에 위치,34.73845822,127.7328673,4:30,18:00,4:30,18:00
전라남도 여수시,여수원예농협 본점,"전라남도 여수시 중앙로 2, 여수원예농업협동조합 (서교동)",1층내부,34.74020885,127.728023,9:00,16:30,,
전라남도 여수시,광주은행 웅천지점,"전라남도 여수시 웅천로 134, 1층 (웅천동)",1층 365코너,34.74036605,127.677842,7:00,22:00,7:00,22:00
전라남도 여수시,농협중앙회 여수시지부(교동),"전라남도 여수시 중앙로 49, 농협중앙회여수시지부 (교동)",농협실내,34.74052586,127.7332833,7:00,24:00:00,7:00,24:00:00
전라남도 여수시,동문동 주민센터,"전라남도 여수시 관문1길 19, 동문동주민자치쎈터 (관문동)",동문동 주민센터 내,34.74194304,127.7428611,9:00,18:00,,
전라남도 여수시,여수교육지원청,"전라남도 여수시 관문동1길 39, 전라남도여수교육지원청 (관문동)",1층 입구,34.74272991,127.7461124,9:00,18:00,,
전라남도 영암군,한마음_무인,전라남도 영암군 삼호읍 신항로 63-12,삼호한마음회관,34.74508874,126.3796939,8:00,21:00,8:00,21:00
전라남도 영암군,해군3함대사령부,전라남도 영암군 삼호읍 신항로 63-12,해군3함대 복지관,34.74508874,126.3796939,9:00,18:00,,
전라남도 여수시,국민연금공단 여수지사,"전라남도 여수시 공화북2길 24, 국민연금공단 여수지사 (공화동)",종합민원실(1층 내부),34.74509056,127.7410212,9:00,18:00,,
전라남도 영암군,삼호읍발급기,"전라남도 영암군 삼호읍 중앙촌길 32, 삼호읍행정복지센터",삼호읍행정복지센터 내,34.746047,126.4691419,8:00,20:00,8:00,20:00
전라남도 영암군,삼호읍발급기2,"전라남도 영암군 삼호읍 중앙촌길 32, 삼호읍행정복지센터",1층 민원실,34.746047,126.4691419,8:00,20:00,8:00,20:00
전라남도 여수시,소호동 원예농협,전라남도 여수시 소호로 493 (소호동),365코너,34.74620658,127.6540217,7:00,24:00:00,7:00,24:00:00
전라남도 여수시,MG새마을금고 웅천지점,전라남도 여수시 예울마루로 37-16(웅천동),MG새마을금고 웅천지점 365코너,34.74691138,127.6709411,5:00,24:00:00,5:00,24:00:00
전라남도 여수시,여수 시민회관,"전라남도 여수시 좌수영로 69, 시민회관 (광무동)",1층외부,34.74709238,127.7279291,0:00,24:00:00,0:00,24:00:00
전라남도 여수시,건강보험공단,"전라남도 여수시 여서로 86, 건강보험공단 (웅천동)",1층 민원실 앞,34.74790536,127.6912474,9:00,18:00,,
전라남도 여수시,여수신협본점,"전라남도 여수시 여서로 156-1, 여수신협 (여서동)",365코너,34.74805726,127.6988406,6:00,24:00:00,6:00,24:00:00
전라남도 장흥군,장동면,"전라남도 장흥군 장동면 신북1길 35, 장동면사무소",민원실 입구 좌측,34.74995321,126.9952904,8:50,18:00,,
전라남도 여수시,중부민원출장소,전라남도 여수시 여서1로 107(여서동),여서청사(중부민원출장소) 1층 위치,34.75421469,127.7093041,0:00,24:00:00,0:00,24:00:00
전라남도 영암군,서호면 행정복지센터,"전라남도 영암군 서호면 서호로 303, 서호면 행정복지센터",현관,34.75458782,126.5851654,9:00,18:00,9:00,18:00
전라남도 영암군,삼호농협 공단지점,전라남도 영암군 삼호읍 대불주거로 187,ATM기기 옆,34.75501189,126.4558953,8:00,21:00,8:00,21:00
전라남도 여수시,근로복지공단,"전라남도 여수시 문수로 125, 근로복지공단 (문수동)",1층,34.75618795,127.7076285,9:00,18:00,,
전라남도 여수시,이마트 여수점,전라남도 여수시 좌수영로 277(광무동),이마트 3층 은행 ATM기 옆,34.75792638,127.7149894,10:00,23:00,10:00,23:00
전라남도 여수시,여수시청1청사(옥외),전라남도 여수시 시청로 1(학동),1층 종합민원실 내 출입구 위치(농협쪽) ,34.7601505,127.6615647,0:00,24:00:00,0:00,24:00:00
전라남도 여수시,여수시청민원실(청사내),"전라남도 여수시 시청로 1, 여수시청 본청사 (학동)",1층 민원실 입구,34.7601505,127.6615647,8:30,18:00,,
전라남도 여수시,시전동 주민센터2,"전라남도 여수시 시전6길 16, 시전동 주민자치센터 (신기동)",1층 민원실 입구 우측,34.76050535,127.6736375,9:00,18:00,,
전라남도 여수시,시전동 주민센터,"전라남도 여수시 시전6길 16, 시전동 주민자치센터 (신기동)",입구,34.76050535,127.6736375,0:00,24:00:00,0:00,24:00:00
전라남도 보성군,득량면사무소,전라남도 보성군 득량면 역전길 13,전라남도 보성군 득량면 역전길 13,34.76221096,127.1687565,8:30,18:30,,
전라남도 영암군,군서농협발급기,전라남도 영암군 군서면 도갑사로 7,군서농협,34.7626575,126.6334494,9:00,17:00,,
전라남도 여수시,새마을금고 죽림지점,전라남도 여수시 소라면 죽림중앙로 30-55,소라면 죽림 한려새마을금고,34.76327824,127.6395353,7:30,23:00,7:30,23:00
전라남도 여수시,쌍봉동주민센터2,"전라남도 여수시 흥국로 25, 쌍봉동주민센터 (학동)",주민센터 입구 좌측,34.76356338,127.6652518,9:00,18:00,,
전라남도 여수시,쌍봉동 주민센터,"전라남도 여수시 흥국로 25, 쌍봉동주민센터 (학동)",입구 좌측,34.76356338,127.6652518,0:00,24:00:00,0:00,24:00:00
전라남도 여수시,국민은행여천지점,전라남도 여수시 시청로 24(학동),국민은행 출입구 내 ATM기 반대편,34.76356588,127.6632234,8:00,23:00,8:00,23:00
전라남도 여수시,농협은행 신여수지점(학동),"전라남도 여수시 시청로 49, 농협 신여수지점 (학동)",365코너,34.76605231,127.6623436,6:00,24:00:00,6:00,24:00:00
전라남도 보성군,보성읍사무소,전라남도 보성군 보성읍 신흥길 17,민원봉사실 내,34.7684241,127.0800719,0:00,24:00:00,0:00,24:00:00
전라남도 보성군,보성읍 행정복지센터2,전라남도 보성군 보성읍 신흥길 17,민원실 내부,34.7684241,127.0800719,9:00,18:00,,
전라남도 여수시,미평동주민센터,"전라남도 여수시 미평3길 42, 미평동주민자치쎈터 (미평동)",1층외부,34.76892612,127.7043901,0:00,24:00:00,0:00,24:00:00
전라남도 여수시,둔덕동주민센터,"전라남도 여수시 좌수영로 509, 둔덕주민자치센터 (둔덕동)",1층내부,34.76929336,127.6946465,9:00,18:00,,
경상남도 남해군,남면행정복지센터,경상남도 남해군 남면 남서대로 778,남면사무소 사무실 및 화장실,34.7713023,127.8870373,0:00,24:00:00,0:00,24:00:00
전라남도 고흥군,대서면_무인 ,전라남도 고흥군 대서면 동서로 464,대서면사무소 민원실,34.77137004,127.2845132,8:30,18:00,8:30,18:00
전라남도 보성군,보성군청 종합민원실,전라남도 보성군 보성읍 송재로 165,종합민원과 입구,34.77148354,127.0800213,0:00,24:00:00,0:00,24:00:00
전라남도 장흥군,장평면,전라남도 장흥군 장평면 장평중앙길 42,1층 민원실 입구,34.77368947,126.9748204,8:00,20:00,8:00,20:00
전라남도 여수시,여천동주민센터,"전라남도 여수시 무선로 190, 여천동주민센터 (선원동)",여천동주민센터 내,34.77751973,127.6524547,0:00,24:00:00,0:00,24:00:00
전라남도 고흥군,동강면_무인,전라남도 고흥군 동강면 서민호길 9,동강면사무소 민원실,34.77915924,127.3344055,0:00,24:00:00,0:00,24:00:00
전라남도 영암군,군서면 행정복지센터,"전라남도 영암군 군서면 왕인로 762, 군서면 행정복지센터",민원실 입구 우측,34.77951583,126.650446,9:00,18:00,9:00,18:00
전라남도 보성군,득량면 예당출장소 ,전라남도 보성군 득량면 예당길 155-23,전라남도 보성군 득량면 예당길 155-23,34.77972858,127.1967677,8:30,18:30,,
전라남도 목포시,목포항국제여객터미널 KIOSK,전라남도 목포시 해안로148번길 14(해안동1가)[전라남도 목포시 해안동1가 10번지 6호],목포항국제여객터미널 대합실 매표소옆,34.78023007,126.382279,0:00,24:00:00,0:00,24:00:00
전라남도 목포시,목포항여객선터미널 KIOSK,전라남도 목포시 해안로 182(항동)[전라남도 목포시 항동 6번지 55호],목포항여객터미널 2층 대합실 입구(동쪽),34.78213053,126.384297,5:00,21:00,5:00,21:00
전라남도 목포시,유달동 행정복지센터,"전라남도 목포시 유동로 19, 유달동행정복지센터 (서산동)",민원실,34.7834655,126.3802304,0:00,24:00:00,0:00,24:00:00
전라남도 여수시,여수세무서,"전라남도 여수시 좌수영로 948-5(봉계동, 여수세무서)",민원실(2층) 입구,34.78393325,127.6674014,9:00,18:00,,
전라남도 목포시,만호동 행정복지센터,"전라남도 목포시 수강로12번길 24, 만호동행정복지센터 (보광동2가)",민원실,34.78728984,126.3872228,0:00,24:00:00,0:00,24:00:00
전라남도 목포시,삼학동 행정복지센터,"전라남도 목포시 자유로104번길 35, 삼학동행정복지센터 (산정동)",민원실,34.7903484,126.4016512,0:00,24:00:00,0:00,24:00:00
전라남도 목포시,동명동 행정복지센터,"전라남도 목포시 자유로20번길 27, 동명동행정복지센터 (동명동)",민원실,34.79090088,126.3920128,0:00,24:00:00,0:00,24:00:00
전라남도 목포시,목포세무서KIOSK,전라남도 목포시 호남로58번길 19(대안동)[전라남도 목포시 대안동 3번지 2호],세무서 민원실 내,34.79270823,126.3846159,9:00,18:00,,
전라남도 여수시,소라면사무소,"전라남도 여수시 소라면 덕양로 389, 소라면사무소",내부,34.79273085,127.632476,0:00,24:00:00,0:00,24:00:00
전라남도 목포시,목원동 KIOSK,전라남도 목포시 수문로 32(남교동),목원동 주민자치센터 현관(4층),34.79316776,126.3829062,0:00,24:00:00,0:00,24:00:00
전라남도 목포시,연동KIOSK,"전라남도 목포시 산정로63번길 14-1, 연동행정복지센터 (산정동)",연동행정복지센터 1층 (후문),34.79438125,126.3914703,9:00,18:00,,
전라남도 여수시,여수혁신지원센터,전라남도 여수시 삼동3길 13(주삼동),여수혁신지원센터 1층 ,34.79466065,127.6606423,0:00,24:00:00,0:00,24:00:00
전라남도 영암군,영암축협 본점,전라남도 영암군 영암읍 월출로 6,하나로마트 ATM옆,34.79483966,126.6860173,8:00,22:00,8:00,22:00
경상남도 통영시,당포항,경상남도 통영시 산양읍 원항1길 3,욕지행 배편 주차장 공중화장실 옆,34.79568014,128.383806,5:00,18:00,5:00,18:00
전라남도 목포시,신흥동 행정복지센터,"전라남도 목포시 하당로 66, 신흥동행정복지센터 (상동)",1층 출입구 부스,34.798843,126.4188249,0:00,24:00:00,0:00,24:00:00
전라남도 보성군,노동면사무소,전라남도 보성군 노동면 화전길 1,노동면사무소 내,34.79910479,127.0676894,8:30,18:30,,
전라남도 목포시,이로동 행정복지센터,"전라남도 목포시 백년대로 189, 이로동행정복지센터 (용해동)",민원실,34.79917531,126.4098445,0:00,24:00:00,0:00,24:00:00
전라남도 목포시,대성동 행정복지센터,"전라남도 목포시 마파지로 20, 대성동행정복지센터 (대성동)",민원실,34.79923931,126.3837286,0:00,24:00:00,0:00,24:00:00
전라남도 영암군,영암읍 행정복지센터,"전라남도 영암군 영암읍 낭주로 133, 영암읍 행정복지센터",현관,34.79948332,126.7014391,9:00,18:00,9:00,18:00
전라남도 목포시,용당2동 KIOSK,"전라남도 목포시 백년대로 95-5, 용당2동행정복지센터 (용당동)",용당2동 행정복지센터 1층 후문,34.79958671,126.3997633,9:00,18:00,,
경상남도 남해군,이동면행정복지센터,경상남도 남해군 이동면 무림로 76,이동면사무소 입구,34.79964271,127.9544645,6:00,23:55,6:00,23:55
전라남도 목포시,죽교동 행정복지센터,"전라남도 목포시 북항로81번길 6, 죽교동행정복지센터 (죽교동)",민원실,34.79982373,126.3750947,0:00,24:00:00,0:00,24:00:00
전라남도 영암군,민원소통과1,전라남도 영암군 영암읍 군청로 1,민원소통과,34.80019063,126.6968002,0:00,24:00:00,0:00,24:00:00
전라남도 보성군,미력면사무소,전라남도 보성군 미력면 송재로 599,미력면사무소 민원실,34.80110132,127.0873705,8:30,18:30,,
전라남도 장흥군,유치면,"전라남도 장흥군 유치면 유치로 22, 유치면농어민상단소, 유치면사무소",유치면사무소 1층 민원실,34.8022895,126.8390495,7:00,18:30,7:00,18:30
전라남도 신안군,남강항 여객터미널,"전라남도 신안군 암태면 중부로 1502-79, 암태남강여객선터미널",대합실 안,34.80318276,126.1200413,5:00,21:00,5:00,21:00
전라남도 목포시,용당1동 행정복지센터,"전라남도 목포시 동부로31번길 20, 용당1동행정복지센터 (용당동)",민원실,34.80593215,126.3917157,0:00,24:00:00,0:00,24:00:00
전라남도 목포시,북항동 행정복지센터,"전라남도 목포시 고하대로 655, 북항동행정복지센터 (산정동)",민원실,34.80701849,126.3694884,0:00,24:00:00,0:00,24:00:00
전라남도 보성군,조성면사무소,전라남도 보성군 조성면 조성로 119,조성면사무소 민원봉사실 내,34.80854768,127.2473722,8:30,18:30,,
전라남도 목포시,산정동 KIOSK,"전라남도 목포시 양을로 144, 산정동행정복지센터 (산정동)",산정동행정복지센터 1층 출입구,34.80909457,126.3866455,0:00,24:00:00,0:00,24:00:00
전라남도 목포시,목포한국병원,전라남도 목포시 영산로 483(상동),2층 무인수납기 옆,34.80932976,126.4163196,0:00,24:00:00,0:00,24:00:00
전라남도 무안군,남악복합민원센터2(민원실),"전라남도 무안군 삼향읍 남악3로 40, 남악복합주민센터",현관,34.80941904,126.4610002,8:00,18:00,8:00,18:00
경상남도 남해군,서면행정복지센터,경상남도 남해군 서면 스포츠로 676,서면사무소 입구,34.81005688,127.8383194,6:00,23:55,6:00,23:55
전라남도 목포시,시청민원실 KIOSK,전라남도 목포시 양을로 203(용당동)[전라남도 목포시 용당동 1188번지 2호],목포시청 민원봉사실 현관 ,34.81153485,126.3912825,0:00,24:00:00,0:00,24:00:00
전라남도 목포시,원산동 KISOK,"전라남도 목포시 원산로145번길 20, 원산동행정복지센터 (연산동)",원산동행정복지센터 1층 출입구,34.81183762,126.3810253,9:00,18:00,,
전라남도 목포시,연산동 행정복지센터,"전라남도 목포시 연산로 191, 연산동행정복지센터 (연산동)",민원실,34.8129951,126.3771395,0:00,24:00:00,0:00,24:00:00
전라남도 목포시,상동행정복지센터,"전라남도 목포시 상리로1번길 32, 상동행정복지센터 (상동)",상동행정복지센터 주차장 옥외부스,34.81380036,126.4141723,0:00,24:00:00,0:00,24:00:00
전라남도 무안군,전남교육청,"전라남도 무안군 삼향읍 어진누리길 10, 전라남도교육청",민원실 내부,34.81594642,126.4683352,9:00,18:00,,
전라남도 목포시,용해동 KIOSK,"전라남도 목포시 용당로 335, 용해동행정복지센터 (용해동)",용해동행정복지센터 1층 입구,34.81656722,126.3993509,0:00,24:00:00,,
전라남도 무안군,전남도청 도민소통실,전라남도 무안군 삼향읍 오룡길 1,민원실 입구 우측,34.81747277,126.4654159,9:00,18:00,9:00,17:00
전라남도 영암군,덕진면 행정복지센터,"전라남도 영암군 덕진면 예향로 1731, 덕진면 행정복지센터",민원실입구,34.81911436,126.6968137,9:00,18:00,9:00,18:00
경상남도 거제시,동부면사무소,경상남도 거제시 동부면 동부로 16,민원실 입구,34.82160837,128.6081181,6:00,24:00:00,6:00,24:00:00
경상남도 통영시,미수그린마트,"경상남도 통영시 미수로 96(미수동, 그린디씨마트)",그린마트 왼쪽 도로변 365부스,34.82379464,128.4006036,5:00,23:00,5:00,23:00
전라남도 여수시,삼일동주민센터,"전라남도 여수시 상암3길 13, 삼일동주민자치센터 (상암동)",1층내부,34.82516742,127.7312494,9:00,18:00,,
경상남도 통영시,유람선터미널,경상남도 통영시 도남로 269-38(도남동),유람선터미널 내 2층,34.82902981,128.433556,6:00,19:00,6:00,19:00
전라남도 보성군,겸백면사무소,전라남도 보성군 겸백면 충의로 2476,민원실 입구 우측,34.82935447,127.1520711,8:30,18:30,,
경상남도 거제시,일운면사무소,경상남도 거제시 일운면 지세포4길 7,면사무소 입구 365코너,34.82956315,128.7034165,6:00,24:00:00,6:00,24:00:00
경상남도 통영시,봉평동주민센터,"경상남도 통영시 도남로 185(봉평동, 봉평동주민센터)",입구 왼쪽 365부스,34.82960558,128.4243177,5:00,23:00,5:00,23:00
전라남도 목포시,삼향동 행정복지센터,"전라남도 목포시 영산로 743, 삼향동행정복지센터 (대양동)",민원실,34.83044148,126.4179939,0:00,24:00:00,0:00,24:00:00
경상남도 남해군,삼동면행정복지센터,경상남도 남해군 삼동면 동부대로1876번길 12,삼동면사무소 본관입구,34.83111128,128.000824,0:00,24:00:00,0:00,24:00:00
전라남도 여수시,영락공원,"전라남도 여수시 소라면 의곡길 494, 영락공원",영락공원 승화원,34.83167605,127.5805293,8:30,18:00,8:30,18:00
경상남도 거제시,둔덕면사무소,경상남도 거제시 둔덕면 거제남서로 4620,면사무소 내,34.8368124,128.5049076,0:00,24:00:00,0:00,24:00:00
경상남도 통영시,도천희망나눔터,"경상남도 통영시 통영해안로 147-7(도천동, 도천이동민원실)",입구 오른쪽 365부스,34.83704479,128.4135972,5:00,23:00,5:00,23:00
경상남도 남해군,남해군청민원실,경상남도 남해군 남해읍 망운로9번길 12[경상남도 남해군 남해읍 서변리24번지 1호],남해군청 민원지적과 내 ,34.83787095,127.8928927,6:00,23:55,6:00,23:55
경상남도 남해군,남해군청 농협출장소,경상남도 남해군 남해읍 망운로9번길 12[경상남도 남해군 남해읍 서변리24번지 1호],남해군청 농협출장소 내,34.83787095,127.8928927,0:00,24:00:00,0:00,24:00:00
경상남도 남해군,남해읍행정복지센터 민원실,"경상남도 남해군 남해읍 화전로 81, 남해읍사무소",남해읍행정복지센터 민원실 내부,34.83854179,127.8937091,9:00,18:00,,
경상남도 통영시,통영여객선터미널,"경상남도 통영시 통영해안로 234(당동, 통영여객선터미널)",여객터미널 내 관광안내소 옆,34.83979138,128.4202252,5:00,21:00,5:00,21:00
전라남도 여수시,여수공항,전라남도 여수시 율촌면 여순로 386[전라남도 여수시 율촌면 신풍리979번지],입구[GATE1] 왼쪽,34.84023268,127.613997,7:00,22:00,7:00,22:00
경상남도 통영시,명정동주민센터,"경상남도 통영시 충렬로 6(명정동, 명정동주민센터)",입구 왼쪽 365부스,34.84256703,128.4197866,5:00,23:00,5:00,23:00
경상남도 통영시,정량동주민센터,"경상남도 통영시 장좌로 28(정량동, 정량동주민센터)",입구 왼쪽 365부스,34.84304019,128.4302123,5:00,23:00,5:00,23:00
전라남도 영암군,도포면 행정복지센터,"전라남도 영암군 도포면 호산로 43, 도포면 행정복지센터",민원실 입구 좌측,34.84544809,126.6435981,8:30,18:00,8:30,18:00
전라남도 보성군,벌교읍사무소 ,전라남도 보성군 벌교읍 채동선로 293,전라남도 보성군 벌교읍 채동선로 293,34.84717937,127.3416545,9:00,18:00,,
전라남도 보성군,벌교읍사무소2,전라남도 보성군 벌교읍 채동선로 293,벌교읍사무소 민원실,34.84717937,127.3416545,0:00,24:00:00,0:00,24:00:00
경상남도 거제시,거제면사무소,경상남도 거제시 거제면 서상길 1,면사무소 내,34.85103412,128.5904376,6:00,24:00:00,6:00,24:00:00
전라남도 무안군,일로읍사무소,전라남도 무안군 일로읍 일로중앙로 37[전라남도 무안군 일로읍 월암리214번지 2호],민원실 입구,34.8514181,126.4902722,9:00,18:00,,
경상남도 통영시,시청민원실,"경상남도 통영시 통영해안로 515, 통영시청 (무전동)",민원실 입구 왼쪽 365부스,34.85434228,128.4331779,8:00,23:00,8:00,23:00
경상남도 통영시,시청 2청사,"경상남도 통영시 해미당1길 33, 통영시청2청사 (무전동)",2청사 1층,34.85603484,128.4304453,7:00,23:00,7:00,23:00
경상남도 통영시,북신동행정복지센터,"경상남도 통영시 여황로 403-6, 북신동행정복지센터 (북신동)",출입구,34.85702708,128.4255804,7:00,23:00,7:00,23:00
경상남도 남해군,창선면행정복지센터,경상남도 남해군 창선면 창선로97번길 6[경상남도 남해군 창선면 상죽리137번지 1호],창선면사무소 입구,34.85780407,128.0121434,6:00,23:55,6:00,23:55
경상남도 통영시,무전동주민센터,"경상남도 통영시 중앙로 320, 무전동행정복지센터 (무전동)",출입구,34.85894228,128.4290496,7:00,23:00,7:00,23:00
경상남도 거제시,장승포동 마전마을회관,"경상남도 거제시 마전5길 8, 마전마을회관 (장승포동)",입구,34.86156334,128.7224605,6:00,24:00:00,6:00,24:00:00
경상남도 통영시,세무서,경상남도 통영시 무전5길 20-9(무전동),민원실내,34.86164497,128.4272444,9:00,18:00,,
전라남도 영암군,금정면 행정복지센터,"전라남도 영암군 금정면 용두로 14, 금정면 행정복지센터",현관,34.86293982,126.7488942,9:00,18:00,9:00,18:00
경상남도 거제시,국민건강보험공단,"경상남도 거제시 아주로 58, 국민건강보험공단 (아주동)",1층 출입구,34.86496108,128.6886844,6:00,24:00:00,6:00,24:00:00
경상남도 통영시,법원,경상남도 통영시 용남면 동달안길 67(창원지방법원 통영지원),입구 오른쪽,34.86508418,128.445939,9:00,18:00,,
경상남도 거제시,아주동주민센터_1,경상남도 거제시 아주로3길 7(아주동),주민센터 내,34.86598754,128.6921127,9:00,18:00,,
경상남도 거제시,아주동주민센터_2(외부),경상남도 거제시 아주로3길 7(아주동),주민센터 입구,34.86598754,128.6921127,6:00,24:00:00,6:00,24:00:00
경상남도 거제시,장승포동주민센터,경상남도 거제시 장승로 146-25(장승포동),민원실 입구,34.86727097,128.7271266,6:00,24:00:00,6:00,24:00:00
경상남도 통영시,용남면사무소,"경상남도 통영시 용남면 달포큰길 28, 용남면사무소",출입구,34.86764152,128.4424349,7:00,23:00,7:00,23:00
경상남도 거제시,상문동주민센터_1(부스),경상남도 거제시 거제중앙로 1641(고현동),주민센터 입구 365코너,34.86802202,128.6379729,6:00,24:00:00,6:00,24:00:00
경상남도 거제시,상문동주민센터_2,경상남도 거제시 거제중앙로 1641(상동동),주민센터 내(1층),34.86802202,128.6379729,9:00,18:00,,
전라남도 영암군,시종면 행정복지센터,"전라남도 영암군 시종면 내동중앙로 41, 시종면 행정복지센터",시종면 행정복지센터 내부,34.86858209,126.6070484,0:00,24:00:00,0:00,24:00:00
전라남도 보성군,율어면사무소,전라남도 보성군 율어면 율어로 562,율어면사무소 민원실,34.87061464,127.1871061,8:30,18:30,,
경상남도 거제시,대우병원,경상남도 거제시 두모길 16(장승포동),병원 내(1층 엘리베이터 옆),34.87195462,128.722122,6:00,24:00:00,6:00,24:00:00
경상남도 거제시,거붕백병원,경상남도 거제시 계룡로5길 14(상동동),병원 내(신관 1층 출입구 왼편),34.87341755,128.6275417,6:00,24:00:00,6:00,24:00:00
경상남도 거제시,거제축협 상동지점,경상남도 거제시 거제중앙로 1726(상동동),1층 로비,34.87426188,128.632964,6:00,24:00:00,6:00,24:00:00
전라남도 순천시,별량면사무소,전라남도 순천시 별량면 별량장길 25,별량면 주민센터 내,34.87436565,127.4519416,9:00,18:00,,
경상남도 거제시,가정행복지원센터,경상남도 거제시 용소1길 35(아주동),내부,34.87460487,128.687719,0:00,24:00:00,0:00,24:00:00
전라남도 화순군,화순군청풍면,"전라남도 화순군 청풍면 평지촌길 40, 청풍면사무소",내부,34.87631331,126.9700257,8:30,18:00,,
경상남도 거제시,능포동주민센터,경상남도 거제시 능포로 182(능포동),민원실 입구(2층),34.87916799,128.734618,6:00,24:00:00,6:00,24:00:00
경상남도 거제시,시청민원실(부스),경상남도 거제시 계룡로 125(고현동),시청 본관 좌측출입구 365부스,34.88055431,128.6207892,0:00,24:00:00,0:00,24:00:00
경상남도 거제시,시청 민원실(내부),"경상남도 거제시 계룡로 125, 거제시청 민원실(내부) (고현동)",본청 1층 민원과 민원실 출입문 내부,34.88055431,128.6207892,9:00,18:00,,
경상남도 거제시,한화오션_2(금융동),경상남도 거제시 거제대로 3370(아주동),서문복지센터 2층 우체국 앞,34.88167012,128.7253181,6:00,24:00:00,6:00,24:00:00
경상남도 거제시,한화오션_3(느태),경상남도 거제시 거제대로 3370(아주동),느태생산센터 1층 매점 앞,34.88167012,128.7253181,6:00,24:00:00,6:00,24:00:00
전라남도 여수시,율촌면사무소,"전라남도 여수시 율촌면 동산개길 8, 율촌면사무소",내부,34.88176447,127.5787788,0:00,24:00:00,0:00,24:00:00
경상남도 통영시,죽림민원실,"경상남도 통영시 광도면 죽림3로 56, (죽림민원실)",죽림민원실 입구 왼쪽 365부스,34.88211124,128.4195647,0:00,24:00:00,0:00,24:00:00
경상남도 통영시,죽림민원실2,"경상남도 통영시 광도면 죽림3로 56, 이동민원실",실내,34.88211124,128.4195647,9:00,18:00,,
경상남도 거제시,통영세무서 거제지서,"경상남도 거제시 계룡로11길 9(고현동, 통영세무서 거제지서)[경상남도 거제시 고현동 577번지]",민원실 내,34.88216992,128.6197966,9:00,18:00,,
경상남도 거제시,거제수협 대교지점,경상남도 거제시 사등면 거제남서로 5333,거제수협 접수대 앞,34.88238007,128.4774187,9:00,16:00,,
경상남도 거제시,고현동주민센터_2,경상남도 거제시 거제중앙로13길 24(고현동),주민센터 내,34.88255637,128.6231419,9:00,18:00,,
경상남도 거제시,고현동주민센터_1,경상남도 거제시 거제중앙로13길 24(고현동),주민센터 내,34.88255637,128.6231419,9:00,18:00,,
경상남도 통영시,이마트,"경상남도 통영시 광도면 죽림4로 9, 2층 (이마트)",2층 미용실 옆,34.88713337,128.4179995,10:00,23:00,10:00,23:00
경상남도 거제시,거제수협 고현지점,경상남도 거제시 고현천로 52(고현동),입구 로비,34.88744193,128.6256688,6:00,24:00:00,6:00,24:00:00
전라남도 화순군,화순군이양면,"전라남도 화순군 이양면 이양로 91, 이양면사무소",내부,34.88782761,126.9883334,0:00,24:00:00,0:00,24:00:00
경상남도 거제시,수양동주민센터_1,경상남도 거제시 제산로5길 26(양정동),주민센터 입구(사무실 밖 중문),34.88796181,128.6462224,6:00,24:00:00,6:00,23:00
경상남도 거제시,수양동주민센터_2,경상남도 거제시 제산로5길 26(양정동),주민센터 내(사무실 안),34.88796181,128.6462224,9:00,18:00,,
경상남도 거제시,장평동주민센터_1,경상남도 거제시 장평3로 10(장평동),건물 로비(1층) 우측,34.88945417,128.6094129,8:00,23:00,9:00,23:00
경상남도 거제시,장평동주민센터_3,경상남도 거제시 장평3로 10(장평동),건물 로비(1층) 왼쪽/복도쪽,34.88945417,128.6094129,8:00,23:00,8:00,18:00
경상남도 거제시,신현농협 본점,경상남도 거제시 고현로11길 23(고현동),농협 365코너,34.88947997,128.6238424,6:00,24:00:00,6:00,24:00:00
경상남도 거제시,거제등기소,경상남도 거제시 거제중앙로31길 32(고현동),등기소 내,34.88998365,128.6187315,9:00,18:00,,
전라남도 영암군,신북면 행정복지센터,"전라남도 영암군 신북면 간은정로 29, 신북면 행정복지센터",민원실 입구 우측,34.89027222,126.6926255,9:00,18:00,9:00,18:00
경상남도 거제시,거제수협 장평지점,"경상남도 거제시 장평로 37, 장평종합상가 (장평동)",장평수협 현금인출기 옆,34.89086168,128.6131049,7:00,23:00,,
경상남도 거제시,옥포1동주민센터,"경상남도 거제시 옥포대첩로4길 34, 옥포1동주민센터 (옥포동)",민원실 입구,34.89098874,128.6926665,6:00,24:00:00,6:00,24:00:00
경상남도 거제시,옥포1동 주민센터 2호기,"경상남도 거제시 옥포대첩로4길 34, 옥포1동주민센터 (옥포동)",주민센터 입구,34.89098874,128.6926665,6:00,24:00:00,6:00,24:00:00
경상남도 거제시,홈플러스 거제점,경상남도 거제시 장평로 12(장평동),홈플러스 지하1층 에스컬레이터 옆,34.89105581,128.616402,6:00,24:00:00,6:00,24:00:00
경상남도 거제시,신현농협 장평지점,경상남도 거제시 장평3로 43 (장평동),2층 농협 ATM코너,34.89269742,128.6087719,6:00,24:00:00,6:00,24:00:00
전라남도 보성군,복내면사무소,전라남도 보성군 복내면 개기로 1670,복내면사무소 민원실 앞,34.89305367,127.131244,8:30,18:30,,
경상남도 거제시,신현농협 중곡지점,경상남도 거제시 중곡로3길 24(고현동),농협지점 내,34.8939372,128.6278053,9:00,18:00,,
경상남도 거제시,거제수협 옥포지점,경상남도 거제시 옥포대첩로 59(옥포동),옥포지점 내부,34.89440464,128.693997,6:00,24:00:00,6:00,24:00:00
경상남도 거제시,옥포2동행정복지센터_1,경상남도 거제시 옥포로25길 20(옥포동),주민센터 내,34.89664725,128.6875709,9:00,18:00,,
경상남도 거제시,옥포2동행정복지센터_2(부스),경상남도 거제시 옥포로25길 20(옥포동),민원실 입구 옆 365코너,34.89664725,128.6875709,6:00,24:00:00,6:00,24:00:00
경상남도 거제시,삼성중공업_1(직원도움방),경상남도 거제시 장평3로 80(장평동),직원 도움의 방(3층),34.89712885,128.6102182,6:00,18:00,,
경상남도 거제시,삼성중공업_2,경상남도 거제시 장평3로 80(장평동),3도크 새마을금고(1층),34.89712885,128.6102182,6:00,24:00:00,6:00,24:00:00
경상남도 거제시,중곡 민원센터,"경상남도 거제시 중곡1로 92, 한일빌딩 (고현동)",1층 중곡 민원센터 출입구,34.8972158,128.6290734,6:00,24:00:00,6:00,24:00:00
경상남도 거제시,맑은샘병원,경상남도 거제시 연초면 거제대로 4477,병원 5층 원무과 앞,34.8977261,128.6436575,6:00,24:00:00,6:00,24:00:00
경상남도 통영시,가오치터미널,경상남도 통영시 도산면 도산일주로 542-55,가오치터미널 내 입구 왼쪽,34.90840039,128.3137699,6:00,17:00,6:00,17:00
전라남도 무안군,청계면사무소 입구,전라남도 무안군 청계면 영산로 1701-8[전라남도 무안군 청계면 도림리489번지 3호],청사 출입문 옆,34.91115925,126.4288172,0:00,24:00:00,0:00,24:00:00
전라남도 순천시,낙안면행정복지센터,"전라남도 순천시 낙안면 민속마을길 1600, 낙안면행정복지센터",복도,34.91226789,127.3523884,9:00,18:00,,
전라남도 순천시,해룡면사무소,전라남도 순천시 해룡면 해룡로 1128-10,해룡면사무소 내,34.91369532,127.5377072,9:00,18:00,,
전라남도 순천시,외서면 행정복지센터,"전라남도 순천시 외서면 쌍향수길 440, 외서면사무소, 보건지소, 의용소방대 1층",1층 실내,34.91376569,127.2774038,8:30,18:00,,
경상남도 거제시,연초면사무소,경상남도 거제시 연초면 죽토로 11,민원실 입구,34.91459362,128.6565239,6:00,24:00:00,6:00,24:00:00
전라남도 신안군,매화도출장소,"전라남도 신안군 압해읍 매화길 678, 압해면매화출장소",출장소 내부,34.91657537,126.2442259,9:00,18:00,,
전라남도 신안군,자은고교항선착장,"전라남도 신안군 자은면 중부로 3627-49, 고교여객선터미널",대합실 내부,34.91804307,126.0893726,4:30,21:00,4:30,21:00
경상남도 거제시,사등면사무소,경상남도 거제시 사등면 성포로 104,민원실 입구,34.91891598,128.5222554,6:00,24:00:00,6:00,24:00:00
전라남도 신안군,가룡항 선착장,전라남도 신안군 압해읍 원가룡길 84-83,여객터미널 대합실,34.92027872,126.3050299,6:00,18:00,6:00,18:00
경상남도 남해군,설천면행정복지센터,경상남도 남해군 설천면 설천로 695,설천면사무소 입구,34.92471107,127.9139344,6:00,23:55,6:00,23:55
전라남도 순천시,도사동주민센터,전라남도 순천시 순천만길 27(덕월동),민원실,34.92523465,127.4937416,8:30,18:30,,
경상남도 사천시,삼천포신항 여객선터미널,경상남도 사천시 신항만1길 76 (향촌동),삼천포신항 여객선터미널 내,34.92697744,128.0883795,0:00,24:00:00,0:00,24:00:00
전라남도 순천시,전라남도 동부지역본부,전라남도 순천시 해룡면 매안로 16,전라남도 동부지역본부 민원실내,34.92727892,127.5543248,9:00,18:00,,
전라남도 광양시,홈플러스 ,전라남도 광양시 항만11로 70(중동),홈플러스 내 ATM기 옆,34.92850532,127.6941407,10:00,23:50,10:00,23:50
경상남도 사천시,동서동(옥외),경상남도 사천시 수남길 102(서동),동주민센터 마당 국기대 앞,34.92857705,128.0689578,0:00,24:00:00,0:00,24:00:00
경상남도 고성군,하이면사무소,경상남도 고성군 하이면 공룡로 1,하이면사무소(실외),34.92869233,128.1227003,0:00,24:00:00,0:00,24:00:00
전라남도 순천시,순천만국가정원 서문매표소,"전라남도 순천시 국가정원1호길 47, 순천만국제습지센터 (오천동)",매표소 내부,34.92887168,127.5008015,9:00,18:00,9:00,18:00
전라남도 보성군,문덕면사무소,전라남도 보성군 문덕면 장운길 40,문덕면사무소 민원실,34.92906819,127.1729624,8:30,18:30,,
경상남도 사천시,선구동(옥외),"경상남도 사천시 각산로 22, 선구동행정복지센터 (선구동)",선구동행정복지센터 입구(옥외부스),34.92972542,128.0721325,0:00,24:00:00,0:00,24:00:00
전라남도 순천시,순천만국가정원 동문매표소,전라남도 순천시 국가정원1호길 152-55(풍덕동),매표소 내부,34.92973774,127.5095781,9:00,18:00,9:00,18:00
경상남도 사천시,동서금동-신청사(옥외),"경상남도 사천시 신항로 25, 동서금동행정복지센터 (동금동)",주 출입구 왼쪽 부스,34.93006641,128.084156,0:00,24:00:00,0:00,24:00:00
전라남도 무안군,몽탄면사무소,"전라남도 무안군 몽탄면 몽탄로 862, 몽탄면사무소",민원실입구,34.93101168,126.5020798,9:00,18:00,,
전라남도 순천시,신대 중흥 1차 아파트,"전라남도 순천시 해룡면 좌야로 101, 1층 (중흥에스-클래스1단지아파트)",커뮤니티센터 로비,34.9315516,127.5442453,6:00,21:00,6:00,21:00
경상남도 사천시,사천바다케이블카,"경상남도 사천시 사천대로 18, 사천바다 케이블카 대방정류장 (대방동)",매표소 좌측건물,34.93381108,128.0532673,8:00,19:00,8:00,19:00
경상남도 사천시,향촌동(옥외),"경상남도 사천시 향촌5길 28, 향촌동행정복지센터 (향촌동)",청사 왼쪽 게시대 앞,34.93384414,128.0934435,0:00,24:00:00,0:00,24:00:00
전라남도 순천시,국민연금공단,"전라남도 순천시 팔마로 334, 국민연금공단순천지사 (연향동)",국민연금공단내),34.93427127,127.5194901,9:00,18:00,,
전라남도 순천시,해룡신대출장소1,전라남도 순천시 해룡면 매안로 162,신대출장소 내,34.93662134,127.5481894,9:00,18:00,,
전라남도 순천시,해룡신대출장소2,"전라남도 순천시 해룡면 매안로 162, 신대행정복합시설",1층 민원실,34.93662134,127.5481894,9:00,18:00,,
전라남도 광양시,금호동주민센터,"전라남도 광양시 희망길 42, 금호동주민자치센터 (금호동)",금호동주민자치센터 입구,34.93701839,127.7231633,0:00,24:00:00,0:00,24:00:00
전라남도 화순군,화순군도암면,"전라남도 화순군 도암면 권동길 4-2, 도암면사무소",청사 내부 입구,34.93729391,126.8971288,8:30,18:00,,
전라남도 광양시,골약동주민센터,전라남도 광양시 성황6길 15(성황동),민원실 입구 중문공간,34.93737146,127.6791673,0:00,24:00:00,0:00,24:00:00
전라남도 순천시,원예농협,"전라남도 순천시 남산로 46, 순천원예농업협동조합 (남정동)",하나로마트 정문입구,34.93888644,127.4926772,8:00,22:00,8:00,22:00
전라남도 순천시,상사면 행정복지센터,"전라남도 순천시 상사면 상사호길 330, 상사면사무소",1층 내부,34.93912291,127.4551896,8:30,18:30,,
전라남도 나주시,동강면행정복지센터,전라남도 나주시 동강면 인동길 28,동강면사무소 내,34.93937827,126.5636023,9:00,18:00,,
전라남도 광양시,백운쇼핑센터,"전라남도 광양시 폭포사랑길 99, 백운쇼핑센터 (금호동)",달빛창고 맞은편 전화부스방향,34.94017607,127.7323403,8:00,22:00,8:00,22:00
전라남도 광양시,중마동주민센터1,전라남도 광양시 중마중앙로 119(중동),민원실 입구,34.94093586,127.6976478,0:00,24:00:00,0:00,24:00:00
전라남도 광양시,중마동주민센터2,전라남도 광양시 중마중앙로 119(중동),민원실 입구,34.94093586,127.6976478,0:00,24:00:00,0:00,24:00:00
전라남도 광양시,중마동주민센터3,"전라남도 광양시 중마중앙로 119, 중마동주민센터 (중동)",민원실 입구,34.94093586,127.6976478,9:00,18:00,,
전라남도 순천시,남제동 행정복지센터,"전라남도 순천시 남정5길 1, 남제동 주민자치센터 (남정동)",1층내부,34.94129483,127.4879434,8:30,18:30,,
전라남도 순천시,풍덕동주민센터,전라남도 순천시 풍덕1길 40(풍덕동),풍덕동주민센터 내,34.9418575,127.4972953,8:30,18:00,,
전라남도 순천시,순천이마트,전라남도 순천시 팔마로 191(덕암동),순천이마트 내,34.94257191,127.5084503,10:00,21:00,10:00,21:00
경상남도 사천시,벌용동(옥외),경상남도 사천시 벌용길 60(벌리동),동사무소 입구,34.94401331,128.0794422,0:00,24:00:00,0:00,24:00:00
전라남도 순천시,덕연이동민원실,전라남도 순천시 연향번영길 56(연향동),덕연이동민원실내,34.94707899,127.5180497,9:00,21:00,9:00,21:00
전라남도 순천시,순천세무서 ,"전라남도 순천시 연향번영길 64, 순천세무서 1층 (연향동)",세무서 1층 민원실 내 좌측,34.9477614,127.518286,9:00,18:00,,
전라남도 신안군,증도 왕바위여객선터미널,전라남도 신안군 증도면 지도증도로 1997,여객선터미널,34.94777812,126.1249113,5:00,21:00,5:00,21:00
전라남도 순천시,저전동 행정복지센터,"전라남도 순천시 청사1길 43, 저전동 주민자치센터 (저전동)",1층내부,34.94805732,127.4840758,8:30,18:30,,
전라남도 순천시,전라남도순천교육지원청,"전라남도 순천시 연향2로 15, 순천교육지원청 (연향동)",1층 입구 좌측,34.94845334,127.5169023,9:00,18:00,,
전라남도 순천시,덕연동행정복지센터,"전라남도 순천시 덕연로 41, 덕연동 주민자치센터 (연향동)",민원실내,34.94849688,127.5107644,8:30,18:00,,
전라남도 순천시,장천동 행정복지센터,"전라남도 순천시 중앙로 22, 장천동행정복지센터 1층 (장천동)",1층 정문 입구,34.94850699,127.486766,9:00,18:00,,
전라남도 순천시,해룡면 상삼출장소,전라남도 순천시 해룡면 상삼길 16,해룡면 상삼출장소 민원실,34.94921845,127.5341285,9:00,18:00,,
전라남도 순천시,조곡동행정복지센터,전라남도 순천시 자경1길 13(조곡동),민원실 내,34.95003749,127.4985772,9:00,18:00,,
전라남도 광양시,중마동농협,전라남도 광양시 진등1길 5 (중동),atm 맞은편,34.9501324,127.6888393,4:00,24:00:00,4:00,24:00:00
전라남도 순천시,순천시청민원실1,전라남도 순천시 장명로 30(장천동),민원실 내,34.95018842,127.4873744,9:00,18:00,,
전라남도 순천시,순천시청민원실2,전라남도 순천시 장명로 30(장천동),민원실 내,34.95018842,127.4873744,9:00,18:00,,
전라남도 순천시,순천시청현관,전라남도 순천시 장명로 30(장천동),로비 안내데스크 옆,34.95018842,127.4873744,0:00,24:00:00,0:00,24:00:00
경상남도 통영시,안정민원실,"경상남도 통영시 광도면 벽방4길 2, 안정민원실",안정민원실 내 입구 오른쪽,34.95019649,128.4105542,9:00,18:00,,
전라남도 화순군,화순군춘양면,"전라남도 화순군 춘양면 돌정3길 12, 춘양면사무소",청사 내부 입구,34.95051186,126.9598175,8:30,18:00,,
전라남도 순천시,순천농협파머스지점,"전라남도 순천시 백연길 111, 파머스지점 (조례동)",365 코너 안(365코너 문열고 왼쪽),34.95253493,127.5329483,6:00,24:00:00,6:00,24:00:00
전라남도 순천시,향동 행정복지센터,"전라남도 순천시 임청대길 1, 향동 행정복지센터 (옥천동)",실외 부스,34.95263006,127.4791311,8:40,18:10,,
전라남도 순천시,농협시지부,전라남도 순천시 이수로 310(연향동),농협시지부내,34.95295937,127.5179726,4:00,24:00:00,4:40,24:00:00
전라남도 순천시,왕조2동 주민센터,"전라남도 순천시 왕궁길 50, 왕조2동 주민자치센터 (조례동)",1층내부,34.95528764,127.5324573,8:00,18:30,,
경상남도 거제시,하청면사무소,경상남도 거제시 하청면 하청로 12-7,면사무소 내,34.95533335,128.6551977,6:00,24:00:00,6:00,24:00:00
전라남도 순천시,중앙동 행정복지센터,"전라남도 순천시 강남로 128, 중앙동 주민자치센터 (동외동)",동주민센터 1층 입구 좌측,34.95600779,127.4864363,0:00,24:00:00,0:00,24:00:00
전라남도 나주시,봉황면행정복지센터,"전라남도 나주시 봉황면 봉황로 753, 봉황면사무소",민원실내부,34.95859404,126.7845334,9:00,18:00,,
전라남도 신안군,고이도출장소,전라남도 신안군 압해읍 고이길 10-4,출장소 내부,34.95986955,126.2889415,9:00,0:00,,
전라남도 신안군,신월항,전라남도 무안군 운남면 신월로 558-23,신월항 매표소,34.96132612,126.2981719,7:00,17:00,7:00,17:00
전라남도 순천시,왕조1동 행정복지센터,"전라남도 순천시 조례신대길 8, 왕조1동 행정복지센터 (조례동)",민원실 입구 좌측,34.96222639,127.5207426,9:00,18:00,,
전라남도 광양시,광양읍 LF스퀘어KIOSK,전라남도 광양시 광양읍 순광로 466,광양 LF스퀘어 광양원예농협 내,34.96251557,127.5654259,11:00,21:00,11:00,21:00
전라남도 광양시,광영동주민센터,전라남도 광양시 정수2길 47(광영동),광영동주민센터 민원실 내,34.96291458,127.722006,0:00,24:00:00,0:00,24:00:00
전라남도 순천시,성가롤로병원,"전라남도 순천시 순광로 221, 성가롤로병원 (조례동)",응급의료센터,34.96375005,127.542936,0:00,24:00:00,0:00,24:00:00
전라남도 순천시,매곡동 행정복지센터,"전라남도 순천시 북정2길 63, 매곡동 주민자치센터 1층 (매곡동)",1층 실내,34.96395236,127.4827995,8:30,18:00,,
전라남도 순천시,한국농어촌공사 순천지사,"전라남도 순천시 조례2길 33, 한국농어촌공사 (조례동)",1층 우측,34.96400863,127.5252966,9:00,18:00,,
전라남도 순천시,문화건강센터,전라남도 순천시 중앙로 232(석현동),문화건강센터 내,34.96674779,127.4860333,9:00,18:00,,
경상남도 사천시,남양동행정복지센터(옥외),"경상남도 사천시 임내안길 65, 남양동행정복지센터 (송포동)",청사 입구 좌측,34.97030771,128.0630298,0:00,24:00:00,0:00,24:00:00
전라남도 순천시,삼산동주민센터,"전라남도 순천시 삼산로 3, 삼산동 주민자치센터 (석현동)",주민센터내,34.97096527,127.48395,8:40,18:00,,
전라남도 순천시,순천시청 이동민원실(법원이동민원실),전라남도 순천시 왕지로 21(왕지동),법원이동민원실내,34.97108436,127.5250389,9:00,18:00,,
경상남도 고성군,고성군청1,경상남도 고성군 고성읍 성내로 130,고성군청 서별관 앞(실외(우측)),34.97273871,128.3223133,0:00,24:00:00,0:00,24:00:00
경상남도 고성군,고성군청2,경상남도 고성군 고성읍 성내로 130,고성군청 서별관 앞(실외(좌측)),34.97273871,128.3223133,0:00,24:00:00,0:00,24:00:00
경상남도 고성군,고성군청3,경상남도 고성군 고성읍 성내로 130,고성군청 열린민원과(실내),34.97273871,128.3223133,9:00,18:00,,
전라남도 광양시,광양읍사무소2,전라남도 광양시 광양읍 남등길 6[전라남도 광양시 광양읍 칠성리946번지],민원실 입구,34.97333996,127.5810498,0:00,24:00:00,0:00,24:00:00
전라남도 광양시,광양읍사무소1,전라남도 광양시 광양읍 남등길 6,민원실 입구,34.97333996,127.5810498,0:00,24:00:00,0:00,24:00:00
전라남도 광양시,광양읍사무소3,전라남도 광양시 광양읍 남등길 6,민원실 입구,34.97333996,127.5810498,0:00,24:00:00,0:00,24:00:00
전라남도 순천시,송광면 행정복지센터,"전라남도 순천시 송광면 쌍향수길 1338, 송광면사무소",외부 부스,34.97428855,127.263867,8:40,18:10,,
전라남도 광양시,광양읍 하나로마트 용강점,전라남도 광양시 광양읍 희양현로 214,하나로마트 365코너 내,34.97597186,127.6058059,8:00,24:00:00,8:00,24:00:00
전라남도 신안군,선도출장소,전라남도 신안군 지도읍 선도길 14-6,선도출장소,34.97661413,126.2695091,9:00,18:00,,
전라남도 화순군,화순군한천면,"전라남도 화순군 한천면 죽헌로 265, 한천면사무소",내부,34.97790414,126.9987357,8:30,18:00,,
경상남도 고성군,고성읍사무소,경상남도 고성군 고성읍 송학로 93,고성읍사무소(실외),34.97807165,128.3192217,0:00,24:00:00,0:00,24:00:00
경상남도 고성군,고성읍사무소2,"경상남도 고성군 고성읍 송학로 93, 고성읍행정복지센터",고성읍사무소(실내),34.97807165,128.3192217,9:00,18:00,,
전라남도 광양시,진월면사무소,전라남도 광양시 진월면 선소중앙길 31,진월면사무소 앞 옥외부스,34.97875777,127.7583755,0:00,24:00:00,0:00,24:00:00
전라남도 광양시,2청사 민원실,전라남도 광양시 광양읍 인덕로 1100,민원실 내,34.98097674,127.583623,9:00,18:00,,
경상남도 거제시,장목면사무소,경상남도 거제시 장목면 장동1길 46-1,면사무소 내,34.98659231,128.6823826,6:00,24:00:00,6:00,24:00:00
전라남도 광양시,옥곡면사무소,전라남도 광양시 옥곡면 옥진로 656,옥곡면사무소 입구,34.98960476,127.6985979,0:00,24:00:00,0:00,24:00:00
전라남도 화순군,화순군능주면,전라남도 화순군 능주면 죽수길 73,능주면사무소 내,34.98964496,126.9576122,8:30,18:00,,
전라남도 무안군,무안읍사무소,전라남도 무안군 무안읍 성내1길 2[전라남도 무안군 무안읍 성내리191번지],1층 민원실 내,34.99052785,126.4763518,8:00,19:00,,
경상남도 고성군,거류면사무소,경상남도 고성군 거류면 당동3길 5,거류면사무소(실외),34.99174288,128.4042561,0:00,24:00:00,0:00,24:00:00
전라남도 나주시,농어촌공사 나주지사,"전라남도 나주시 영나로 2418, 한국농어촌공사전남지역본부나주지사 (용산동)",현관 입구,34.99269102,126.7228341,9:00,18:00,,
전라남도 나주시,영산포농협 하나로마트 365코너,"전라남도 나주시 예향로 3775, 영산포농협하나로마트 (이창동)",365코너,34.99302507,126.7097567,7:00,21:00,7:00,21:00
전라남도 순천시,서면사무소,전라남도 순천시 서면 임촌동길 94,서면사무소내,34.99474347,127.4884467,9:00,18:00,,
전라남도 무안군,무안국제공항,"전라남도 무안군 망운면 공항로 970-260, 무안국제공항",2층,34.99617329,126.3876314,0:00,24:00:00,,
전라남도 무안군,무안국제공항2,"전라남도 무안군 망운면 공항로 970-260, 무안국제공항",2층,34.99617329,126.3876314,0:00,24:00:00,0:00,24:00:00
전라남도 화순군,화순군도곡면,전라남도 화순군 도곡면 효자2길 70,내부 입구,34.99673584,126.9150754,8:30,18:00,,
전라남도 나주시,이창동행정복지센터,전라남도 나주시 영산포로 182(이창동),이창동사무소 내부,34.99748219,126.7098945,9:00,18:00,,
경상남도 사천시,종합민원실(옥외),경상남도 사천시 용현면 시청로 77,민원실 입구 정면 우측 무인민원발급부스,35.00358813,128.0647466,0:00,24:00:00,0:00,24:00:00
경상남도 사천시,서포면행정복지센터(옥외),"경상남도 사천시 서포면 자구로 465-17, 서포면행정복지센터",청사 주차장쪽 계단,35.00611312,127.9779646,0:00,24:00:00,0:00,24:00:00
전라남도 화순군,화순군사평면,"전라남도 화순군 사평면 사호로 229, 사평면행정복지센터",민원실내,35.00730524,127.0958651,8:30,18:00,,
전라남도 나주시,국립나주병원,"전라남도 나주시 산포면 세남로 1328-31, 국립나주병원",병원로비,35.0095084,126.8255988,7:00,23:00,7:00,23:00
전라남도 함평군,엄다면,"전라남도 함평군 엄다면 엄다길 53, 엄다면사무소",1층외부,35.01045626,126.5158035,0:00,24:00:00,0:00,24:00:00
전라남도 무안군,망운면사무소,"전라남도 무안군 망운면 운해로 1436-10, 망운면사무소",망운면사무소 내부,35.012725,126.3945377,8:00,18:00,,
경상남도 사천시,용현면(옥외),"경상남도 사천시 용현면 진삼로 637, 용현면행정복지센터",옥외부스,35.01374203,128.0612598,0:00,24:00:00,0:00,24:00:00
전라남도 순천시,승주읍사무소,전라남도 순천시 승주읍 승주로 731,승주읍사무소내,35.01451912,127.3895302,9:00,18:00,,
전라남도 나주시,나주시민봉사과(2호기),전라남도 나주시 시청길 22(송월동),시민봉사과 내,35.01578414,126.7108389,9:00,18:00,9:00,13:00
전라남도 나주시,나주시민봉사과(1호기),전라남도 나주시 시청길 22(송월동),시민봉사과 내,35.01578414,126.7108389,9:00,18:00,9:00,13:00
전라남도 나주시,나주시민봉사과 외부,"전라남도 나주시 시청길 22, 나주시청 (송월동)",시민봉사과 2층 엘리베이터 입구,35.01578414,126.7108389,0:00,24:00:00,0:00,24:00:00
전라남도 함평군,학교면사무소,"전라남도 함평군 학교면 학다리길 330, 학교면사무소",민원실내부,35.01677954,126.5373826,0:00,24:00:00,0:00,24:00:00
전라남도 광양시,옥룡면사무소,전라남도 광양시 옥룡면 신재로 624[전라남도 광양시 옥룡면 운평리262번지],옥룡면사무소 앞 옥외부스,35.01695051,127.6192703,0:00,24:00:00,0:00,24:00:00
전라남도 나주시,빛가람동행정복지센터(1호기),전라남도 나주시 빛가람로 719(빛가람동),빛가람동주민센터 내,35.02175973,126.7903636,9:00,18:00,,
전라남도 나주시,빛가람동행정복지센터(2호기),전라남도 나주시 빛가람로 719(빛가람동),빛가람동주민센터 민원실 내,35.02175973,126.7903636,9:00,18:00,,
전라남도 나주시,빛가람동행정복지센터(3호기) 외부,"전라남도 나주시 빛가람로 719, 빛가람동행정복지센터 (빛가람동)",1층 민원실 입구,35.02175973,126.7903636,0:00,24:00:00,0:00,24:00:00
경상남도 하동군,고전면 무인민원발급기,경상남도 하동군 고전면 하동읍성로 349[경상남도 하동군 고전면 범아리226번지],고전면사무소 내,35.02224369,127.8172475,8:00,19:00,9:00,18:00
전라남도 나주시,나주세무서 민원실 입구,전라남도 나주시 재신길 33-0(송월동),나주세무서 내,35.02357246,126.7139891,9:00,18:00,,
전라남도 신안군,지신개 선착장,"전라남도 신안군 지도읍 사옥길 465, 지신개선착장",선착장 내부,35.02470633,126.1700134,6:00,17:30,6:00,17:30
전라남도 나주시,한전 본사 지하1층,전라남도 나주시 전력로 55(빛가람동),한국전력공사 본사 지하1층 로비,35.0263692,126.7844537,9:00,18:00,,
전라남도 나주시,산포농협 하나로마트 로컬푸드직매장,"전라남도 나주시 한빛로 171, 산포농협 하나로마트 빛누리점 (빛가람동)",로컬푸드직매장 내부 ,35.02886969,126.7892621,9:00,21:00,9:00,21:00
전라남도 화순군,화순군동면,"전라남도 화순군 동면 충의로 751, 동면행정복지센터(동면사무소)",내부,35.02971693,127.0384642,0:00,24:00:00,0:00,24:00:00
경상남도 하동군,진교면 무인민원발급기,경상남도 하동군 진교면 민다리안길 62[경상남도 하동군 진교면 진교리338번지 1호],진교면사무소 내(좌측),35.03027669,127.9007211,8:00,19:00,8:00,19:00
전라남도 나주시,금천면행정복지센터,전라남도 나주시 금천면 금영로 934,금천면사무소 내부,35.03085173,126.7534811,9:00,18:00,,
전라남도 나주시,농협중앙회 나주시지부 365코너,전라남도 나주시 금성길 32(중앙동),365코너 내부,35.0319078,126.7184822,7:00,23:00,7:00,23:00
전라남도 나주시,성북동행정복지센터,전라남도 나주시 성북2길 6(성북동),성북동주민센터 내,35.03506458,126.7194075,9:00,18:00,,
전라남도 나주시,나주축산농협(본점) 365코너,전라남도 나주시 대호길 19 (성북동),축협은행 365코너 내,35.03765693,126.7176954,7:00,23:00,7:00,23:00
전라남도 나주시,산포면행정복지센터,"전라남도 나주시 산포면 산포로 468-15, 산포면사무소",1층 로비,35.04011517,126.8056812,9:00,18:00,,
경상남도 고성군,동해면사무소,경상남도 고성군 동해면 장기3길 100,동해면사무소(실외),35.04145558,128.4210654,0:00,24:00:00,0:00,24:00:00
전라남도 나주시,남평읍행정복지센터,"전라남도 나주시 남평읍 남평2로 42-7, 남평읍사무소",남평읍사무소 민원실 내,35.04599358,126.8426934,9:00,18:00,,
전라남도 나주시,남평농협 365코너,전라남도 나주시 남평읍 남평1로 29,남평농협 365코너,35.04746896,126.8410367,8:00,20:00,8:00,20:00
경상남도 하동군,양보면 무인민원발급기,경상남도 하동군 양보면 진양로 736[경상남도 하동군 양보면 운암리226번지 1호],양보면사무소 내,35.04747639,127.8456616,8:00,19:00,,
부산광역시 사하구,다대도서관,부산광역시 사하구 다대낙조2길 9(다대동),다대도서관 2층 로비 위치,35.05042816,128.9646728,9:00,22:00,9:00,22:00
전라남도 화순군,화순축협본점,"전라남도 화순군 화순읍 서양로 145, 축협하나로마트",마트 내부,35.05251315,126.9891727,8:30,22:00,8:30,22:00
경상남도 사천시,사남면(옥외),경상남도 사천시 사남면 진삼로 1108,면사무소 건물 좌측,35.05255998,128.0752274,0:00,24:00:00,0:00,24:00:00
전라남도 화순군,화순농협하나로마트 오성점,"전라남도 화순군 화순읍 오성로 493-4, 화순농협하나로마트 오성점",하나로마트 실내,35.05277805,126.9627311,8:30,20:00,8:30,20:00
경상남도 사천시,정동면(옥외),"경상남도 사천시 정동면 상정대로 2540-39, 정동면행정복지센터",옥외부스,35.05591089,128.1238018,0:00,24:00:00,0:00,24:00:00
부산광역시 강서구,가덕도동행정복지센터,"부산광역시 강서구 동선길 10, 가덕도동 행정복지센터 (성북동)",민원실 입구,35.05663143,128.8317189,9:00,18:00,,
경상남도 사천시,곤양면(옥외),경상남도 사천시 곤양면 성내공원길 11,행정복지센터 옆 예비군중대본부 입구,35.05726198,127.959491,0:00,24:00:00,0:00,24:00:00
전라남도 화순군,화순농협하나로마트,"전라남도 화순군 화순읍 쌍충로 74, 농협하나로마트",내부,35.05876661,126.9822247,8:00,22:00,8:00,22:00
부산광역시 사하구,다대1동행정복지센터,"부산광역시 사하구 다대로530번길 7, 다대1동행정복지센터 (다대동)",동사 출입구,35.05916984,128.9713294,0:00,24:00:00,0:00,24:00:00
전라남도 화순군,화순군화순읍,전라남도 화순군 화순읍 중앙로 20-4,읍사무소 내 1층(민원실 앞),35.06012764,126.9845237,0:00,24:00:00,0:00,24:00:00
전라남도 화순군,화순군화순읍2,"전라남도 화순군 화순읍 중앙로 20-4, 화순읍행정복지센터",민원실,35.06021287,126.9835636,0:00,24:00:00,0:00,24:00:00
경상남도 고성군,회화면사무소,경상남도 고성군 회화면 배둔로 80,회화면사무소(실외),35.06033443,128.3732724,0:00,24:00:00,0:00,24:00:00
전라남도 화순군,화순우체국 ,전라남도 화순군 화순읍 중앙로 85,화순우체국 내 1층,35.06064963,126.9907299,8:30,18:00,,
전라남도 화순군,화순전남대학교 병원,전라남도 화순군 화순읍 서양로 322,화순전남대병원 내 1층(채혈실 부근),35.06111676,127.0032137,6:00,22:00,6:00,22:00
전라남도 화순군,화순읍민원출장소,"전라남도 화순군 화순읍 광덕로 205, 금호타운",내부,35.06321351,126.992271,0:00,24:00:00,0:00,24:00:00
부산광역시 사하구,다대2동행정복지센터,"부산광역시 사하구 다대로429번길 30, 다대2동행정복지센터 (다대동)",동사 출입구,35.06355298,128.9820086,0:00,24:00:00,0:00,24:00:00
경상남도 하동군,하동버스터미널 무인민원발급기,"경상남도 하동군 하동읍 너뱅이길 35, 하동시외버스터미널",하동버스터미널 내부,35.06421259,127.7605978,0:00,24:00:00,0:00,24:00:00
전라남도 화순군,행복민원과,전라남도 화순군 화순읍 동헌길 23,화순군청 행복민원과 내,35.06459009,126.9861688,8:30,18:00,,
전라남도 화순군,군청인허가과입구,전라남도 화순군 화순읍 동헌길 23,당직실 앞(민원접견실 입구),35.06459009,126.9861688,0:00,24:00:00,0:00,24:00:00
경상남도 하동군,진주세무서 하동지서 무인민원발급기,"경상남도 하동군 하동읍 하동공원길 8, 진주세무서하동지서",민원실 입구 우측,35.06498517,127.7456401,0:00,24:00:00,,
경상남도 하동군,국민건강보험공단 하동남해지사,"경상남도 하동군 하동읍 경서대로 114, 국민건강보험공단",1층 민원실 내,35.06541751,127.7489814,9:00,18:00,,
전라남도 함평군,함평읍사무소,전라남도 함평군 함평읍 중앙길 132[전라남도 함평군 함평읍 기각리132번지],함평읍사무소 사무실 입구,35.0655059,126.5201631,0:00,24:00:00,0:00,24:00:00
전라남도 화순군,군민종합문화센터,전라남도 화순군 화순읍 광덕로 231,군민종합문화센터 내 1층 수영장 입구(안내데스크 앞),35.06551234,126.9917538,8:00,21:00,9:00,18:00
경상남도 하동군,민원과 무인민원발급기,경상남도 하동군 하동읍 군청로 23[경상남도 하동군 하동읍 180번지 3호],민원과 입구 우측,35.06733885,127.751323,9:00,18:00,,
경상남도 하동군,민원과(옥외부스) 무인민원발급기,"경상남도 하동군 하동읍 군청로 23, 하동군청",민원과 서쪽 출입구 앞,35.06733885,127.751323,0:00,24:00:00,0:00,24:00:00
전라남도 함평군,대동면,전라남도 함평군 대동면 대동길 5-10,1층외부,35.06898454,126.5314166,0:00,24:00:00,0:00,24:00:00
전라남도 화순군,화순군동복면,"전라남도 화순군 동복면 석등길 11, 동복면 행정복지센터",내부,35.07116289,127.1290699,8:30,18:00,,
부산광역시 사하구,장림탑마트,부산광역시 사하구 다대로 296 (장림동),장림탑마트 지하 1층,35.07589781,128.9762514,9:00,22:00,9:00,22:00
전라남도 나주시,노안면행정복지센터,"전라남도 나주시 노안면 금산로 14, 노안면사무소",1층 로비,35.07602976,126.7320483,9:00,18:00,,
전라남도 순천시,주암면사무소,전라남도 순천시 주암면 동주로 2047,주암면사무소 내,35.0768196,127.2350646,9:00,18:00,,
부산광역시 사하구,장림2동행정복지센터,"부산광역시 사하구 장평로 131, 장림2동행정복지센터 (장림동)",동사 출입구,35.07787882,128.9726037,0:00,24:00:00,0:00,24:00:00
경상남도 하동군,농업기술센터 무인민원발급기,"경상남도 하동군 적량면 한옥정길 91, 하동군농업기술센터 2층",2층 대강당 옆 ,35.07872714,127.7680906,9:00,18:00,,
부산광역시 서구,암남동주민센터,"부산광역시 서구 충무대로 83, 암남동주민센터 (암남동)",1층 로비,35.07989698,129.0209501,8:30,18:30,9:00,18:00
부산광역시 서구,고신대학교 복음병원,"부산광역시 서구 감천로 262(암남동, 고신대학교복음병원)",3동 1층 민원실,35.08107807,129.0145128,0:00,24:00:00,6:00,18:00
광주광역시 남구,대촌동 행정복지센터,"광주광역시 남구 포충로 591, 대촌동행정복지센터 (지석동)",정문 출입구,35.0812154,126.8337396,9:00,18:00,,
부산광역시 사하구,구평동행정복지센터,"부산광역시 사하구 서포로 48, 구평동행정복지센터 (구평동)",동사 1층,35.08193315,128.9878265,9:00,18:00,9:30,17:30
경상남도 하동군,적량면 무인민원발급기,경상남도 하동군 적량면 대티길 9[경상남도 하동군 적량면 관리47번지],적량면사무소 내,35.08304102,127.7770249,8:00,19:00,9:00,18:00
부산광역시 사하구,장림1동행정복지센터,"부산광역시 사하구 장림로161번길 2, 장림1동행정복지센터 (장림동)",동사 출입구,35.08305432,128.9668712,0:00,24:00:00,0:00,24:00:00
부산광역시 강서구,명지2동 행정복지센터,부산광역시 강서구 명지오션시티11로 33(명지동),민원센터내부,35.0845804,128.899781,9:00,18:00,,
부산광역시 강서구,신호동 행정복지센터,부산광역시 강서구 신호산단4로 56 (신호동),신호동 행정복지센터,35.08544096,128.8791223,9:00,18:00,,
부산광역시 강서구,녹산동 경제자유구역청 ,부산광역시 강서구 녹산산단232로 38-26(송정동)[부산광역시 강서구 송정동],경제자유구역청 1층 정문 로비 입구,35.08657431,128.8402633,0:00,24:00:00,0:00,24:00:00
경상남도 사천시,사천읍(옥외),경상남도 사천시 사천읍 무산로 21,읍사무소 본관 우측 부스,35.08767144,128.087711,0:00,24:00:00,0:00,24:00:00
경상남도 창원시,웅동2동 민원센터,경상남도 창원시 진해구 신항4로 53-45(용원동),입구,35.08769825,128.8133675,0:00,24:00:00,0:00,24:00:00
부산광역시 영도구,강남의원,"부산광역시 영도구 꿈나무길 183, 강남의원 1층 (영선동2가)",강남의원 내 1층 ,35.08774799,129.0441814,9:00,17:30,,
부산광역시 사하구,감천1동행정복지센터,부산광역시 사하구 감천로93번길 2 (감천동),1층,35.08858007,129.0022733,0:00,24:00:00,0:00,24:00:00
전라남도 신안군,송도선착장 KIOSK,전라남도 신안군 지도읍 해제지도로 1953,지도점암여객선터미널 내,35.08898817,126.1576982,4:00,21:00,4:00,21:00
부산광역시 사하구,신평1동행정복지센터,"부산광역시 사하구 장평로 258, 신평1동 행정복지센터 (신평동)",동사 출입구,35.08921254,128.9732511,0:00,24:00:00,0:00,24:00:00
부산광역시 영도구,영도구청,부산광역시 영도구 태종로 423(청학동)[부산광역시 영도구 청학동 48번지 3호],영도구청 민원홀내,35.09121745,129.0679105,0:00,24:00:00,0:00,24:00:00
부산광역시 영도구,영도구청2번,부산광역시 영도구 태종로 423(청학동),영도구청 1층 로비,35.09121745,129.0679105,0:00,24:00:00,0:00,24:00:00
부산광역시 영도구,BNK부산은행 영도금융센터,부산광역시 영도구 절영로 27(대교동2가),BNK부산은행 영도금융센터 365코너,35.09182662,129.0397411,7:00,24:00:00,7:00,24:00:00
경상남도 사천시,사천공항,"경상남도 사천시 사천읍 사천대로 1971, 사천공항",공항 주출입문 좌측 농협ATM기기 옆,35.09220516,128.0866635,6:00,22:00,6:00,22:00
전라남도 순천시,월등면 행정복지센터,"전라남도 순천시 월등면 월등로 571, 월등면사무소 1층",1층 실내,35.09344042,127.3804967,8:30,18:00,,
부산광역시 사하구,감천2동행정복지센터,"부산광역시 사하구 옥천로93번길 14, 감천2동행정복지센터 (감천동)",동사 출입구 우측 옥외부스,35.09461091,129.0093604,0:00,24:00:00,0:00,24:00:00
부산광역시 사하구,제2청사,"부산광역시 사하구 하신중앙로 185, 사하구 제2청사, 신평2동행정복지센터 (신평동)",보건소 로비,35.09496763,128.9615408,8:00,23:00,,
부산광역시 영도구,봉래1동 홈플러스,부산광역시 영도구 대교로14번길 57(봉래동2가)[부산광역시 영도구 봉래동2가 151번지 1호],홈플러스 2층,35.09590511,129.0442257,10:00,23:59,10:00,23:59
부산광역시 강서구,부산지방법원 서부지원,부산광역시 강서구 명지국제7로 77(명지동),부산지방법원 서부지원,35.09729272,128.909823,9:00,18:00,,
부산광역시 서구,부산시서구청 ,"부산광역시 서구 구덕로 120(토성동4가, 서구청)",본관 1층 종합민원실 입구,35.09753896,129.0234262,0:00,24:00:00,0:00,24:00:00
부산광역시 강서구,명지국제신도시 MG새마을금고,부산광역시 강서구 명지국제8로 269 (명지동),은행 창구 앞,35.09811924,128.9224246,9:00,16:00,,
광주광역시 광산구,동곡동행정복지센터,"광주광역시 광산구 동곡로 151-56, 동곡동 행정복지센터 (하산동)",민원실 입구,35.09839505,126.7720857,9:00,18:00,,
부산광역시 사하구,괴정4동행정복지센터,"부산광역시 사하구 낙동대로309번길 9, 괴정4동행정복지센터 (괴정동)",동사 출입구,35.09914474,128.9831591,0:00,24:00:00,0:00,24:00:00
광주광역시 남구,시각장애인복지관,광주광역시 남구 덕남길 7(노대동),복지관 F1층,35.09941963,126.8959145,0:00,24:00:00,,
부산광역시 사하구,부산은행괴정동지점,부산광역시 사하구 낙동대로 225 (괴정동),1층 ATM기 내부,35.09957677,128.9923568,7:00,23:55,7:00,23:55
부산광역시 강서구,명지1동 행정복지센터,"부산광역시 강서구 명지국제8로 131, 명지1동 행정복지센터 (명지동)",청사 내,35.10012921,128.9070436,9:00,18:00,,
부산광역시 중구,광복동지하상가,"부산광역시 중구 중앙대로 지하 17, 광복지하도상가 (중앙동6가)",롯데백화점 아쿠아몰 입구,35.10047237,129.0365593,0:00,24:00:00,0:00,24:00:00
부산광역시 사하구,괴정3동행정복지센터,"부산광역시 사하구 낙동대로171번길 30-5, 괴정3동행정복지센터 (괴정동)",동사 출입구,35.10050762,128.9983657,0:00,24:00:00,0:00,24:00:00
부산광역시 서구,부산대병원 ,"부산광역시 서구 구덕로 179(아미동1가, 부산대병원)",B동 외래센터 1층 안내데스크 옆,35.10112888,129.0192443,6:00,21:00,6:00,18:00
경상남도 창원시,웅동2동행정복지센터 입구,"경상남도 창원시 진해구 용재로 46(용원동, 웅동2동주민센터)",웅동2동행정복지센터 입구,35.10115218,128.8147496,0:00,24:00:00,0:00,24:00:00
경상남도 창원시,웅동2동행정복지센터 내부,"경상남도 창원시 진해구 용재로 46(용원동, 웅동2동주민센터)",웅동2동주민센터 입구,35.10115218,128.8147496,9:00,18:00,0:00,0:00
부산광역시 중구,중앙동 주민센터,부산광역시 중구 중앙대로41번길 10(중앙동2가),중앙동주민센터 1층,35.10130243,129.0353425,9:00,18:00,,
전라남도 순천시,황전면 행정복지센터,"전라남도 순천시 황전면 백야중길 12, 황전면사무소",1층내부,35.10137324,127.4270184,8:30,18:30,,
광주광역시 남구,효천1지구 입하신협,광주광역시 남구 효천2로 26 (임암동),365코너,35.10180547,126.8733781,7:00,23:55,7:00,23:55
광주광역시 남구,효덕동 행정복지센터,광주광역시 남구 효우로 200(행암동),3층 행정복지센터 출입구 앞,35.10195931,126.8943347,9:00,18:00,9:00,18:00
부산광역시 남구,오륙도SK VIEW,"부산광역시 남구 오륙도로 85(용호동, 오륙도SK뷰)",관리사무소 입구,35.10221823,129.1167677,0:00,24:00:00,0:00,24:00:00
부산광역시 중구,국민건강보험공단 부산중부지사,"부산광역시 중구 중앙대로 63, 부산우체국 (중앙동3가)",10층 민원실,35.10336358,129.0359761,9:00,18:00,,
부산광역시 사하구,괴정2동행정복지센터,"부산광역시 사하구 까치고개로 14-1, 괴정2동행정복지센터 (괴정동)",동사 출입구,35.10336912,129.0039009,0:00,24:00:00,0:00,24:00:00
부산광역시 사하구,하단1동행정복지센터,"부산광역시 사하구 하신중앙로 308, 하단1동행정복지센터 (하단동)",동사 출입구,35.1039645,128.9642425,0:00,24:00:00,0:00,24:00:00
경상남도 창원시,케이조선 바다관,"경상남도 창원시 진해구 명제로 60(원포동, (주)stx조선)",바다관 1층,35.10429061,128.7103684,7:00,22:00,7:00,22:00
경상남도 창원시,경남동부신협 용원지점 ,"경상남도 창원시 진해구 안청북로 33(청안동, 풍림상가 101호)",신협 365코너,35.10433115,128.8065495,6:00,24:00:00,8:00,23:59
부산광역시 사하구,사하구청 민원실,부산광역시 사하구 낙동대로398번길 12(당리동),당리역 5번출구 사하구청 본관 1층,35.10450196,128.9747902,0:00,24:00:00,0:00,24:00:00
부산광역시 사하구,사하구청 옥외 부스,"부산광역시 사하구 낙동대로398번길 12, 사하구청 (당리동)",구청 본관 우측,35.10450196,128.9747902,0:00,24:00:00,0:00,24:00:00
부산광역시 중구,중부산세무서,"부산광역시 중구 충장대로 6, 한진중공업R&D센터 4층 (중앙동4가)",중부산세무서 민원봉사실,35.10469807,129.037122,9:00,18:00,,
부산광역시 중구,중구청 민원실,부산광역시 중구 중구로 120(대청동1가),1층 민원실(당직실 옆),35.10620622,129.0323589,0:00,24:00:00,0:00,24:00:00
경상남도 사천시,축동면행정복지센터(옥외),"경상남도 사천시 축동면 길평1길 20, 축동면행정복지센터",옥외부스,35.10713232,128.0883952,0:00,24:00:00,0:00,24:00:00
경상남도 고성군,영오면사무소,경상남도 고성군 영오면 영산1길 7,영오면사무소(실외),35.1078321,128.2376537,0:00,24:00:00,0:00,24:00:00
부산광역시 중구,박기종 기념관,부산광역시 중구 망양로 362 (영주동),박기종 기념관,35.10924735,129.0310513,9:00,18:00,9:00,18:00
부산광역시 서구,서부산세무서,"부산광역시 서구 대영로 10, 서부산세무서 (서대신동2가)",1층 민원실 입구,35.11002635,129.013001,9:00,18:00,,
부산광역시 중구,부산출입국외국인청 종합민원센터,"부산광역시 중구 중앙대로 146, 대한항공빌딩 (중앙동4가)",대한항공빌딩 1F 부산출입국외국인청 종합민원실,35.11032968,129.0379905,9:00,18:00,,
부산광역시 남구,부산성모병원,부산광역시 남구 용호로232번길 25-14(용호동),부산성모병원 1층 로비,35.11043048,129.1092126,0:00,24:00:00,0:00,24:00:00
전라남도 무안군,해제면사무소,전라남도 무안군 해제면 현해로 1693[전라남도 무안군 해제면 신정리18번지 5호],민원실 입구,35.11055633,126.2946623,9:00,18:00,,
부산광역시 강서구,명지노인종합복지관,"부산광역시 강서구 명지국제13로 33, 명지노인종합복지관 (명지동)",1층 로비 입구 중앙,35.1105637,128.923047,9:00,18:00,,
전라남도 화순군,화순군이서면,"전라남도 화순군 이서면 적벽로 845, 이서면행정복지센터(이서면사무소)",청사 내부 입구,35.11058108,127.0706992,0:00,24:00:00,0:00,24:00:00
경상남도 창원시,웅천동행정복지센터,"경상남도 창원시 진해구 웅천중로 59, 웅천동행정복지센터 (성내동)",웅천동행정복지센터 외부부스,35.11130181,128.7495937,0:00,24:00:00,0:00,24:00:00
광주광역시 남구,송암동 행정복지센터,"광주광역시 남구 송암로 66, 교통과(1층), 송암동주민센터(2층) (송하동)",1층 출입구 ,35.11153785,126.8771117,9:00,18:00,,
경상남도 사천시,곤명면행정복지센터(옥외),"경상남도 사천시 곤명면 원전새길 64, 곤명면행정복지센터",청사 오른쪽편,35.1119766,127.9415869,0:00,24:00:00,0:00,24:00:00
부산광역시 서구,삼육부산병원,"부산광역시 서구 대티로 170, 삼육부산병원 (서대신동2가)",B동 1층 안내데스크 앞,35.11206562,129.0109763,0:00,24:00:00,0:00,24:00:00
부산광역시 강서구,녹산농협 본점,부산광역시 강서구 낙동남로 524(녹산동),은행창구앞,35.11215954,128.8771817,9:00,16:30,,
광주광역시 남구,진월동 행정복지센터,광주광역시 남구 화산로 15(진월동),1층 민원실 내,35.11244977,126.8985503,9:00,18:00,,
전라남도 함평군,나산면,"전라남도 함평군 나산면 나산길 108, 나산면사무소",1층외부,35.11389244,126.6090891,0:00,24:00:00,0:00,24:00:00
광주광역시 서구,서창동 행정복지센터,"광주광역시 서구 눌재로 412, 서창동주민센터 (세하동)",1층 현관입구,35.11449975,126.8302906,5:00,3:00,5:00,3:00
부산광역시 사하구,하단2동행정복지센터,부산광역시 사하구 하신번영로 377(하단동),하단2동행정복지센터 내부,35.11458863,128.9605228,9:00,18:00,,
부산광역시 남구,용호2동 행정복지센터,"부산광역시 남구 용호로197번길 41, 용호2동주민센터 (용호동)",동행정복지센터 출입문 안,35.11483084,129.1134273,9:00,18:00,,
광주광역시 남구,광주웨슬리신협 효덕점,광주광역시 남구 서문대로 659 (진월동),365코너,35.11828098,126.8984516,6:00,24:00:00,6:00,24:00:00
경상남도 창원시,구산면행정복지센터,"경상남도 창원시 마산합포구 구산면 구산로 554, 구산면 행정복지센터",1층 민원실,35.11970441,128.5808146,0:00,24:00:00,0:00,24:00:00
부산광역시 남구,용당동 행정복지센터,"부산광역시 남구 신선로 396, 용당동복합청사 1층 (용당동)",1층 민원실,35.12042591,129.0985081,9:00,18:00,,
광주광역시 동구,지원2동행정복지센터,"광주광역시 동구 화산로 361, 지원2동주민센터 (용산동)",민원실,35.12048189,126.9328418,8:30,18:00,9:00,17:00
부산광역시 서구,동아대학교 병원 ,"부산광역시 서구 대신공원로 26(동대신동3가, 동아대병원)",본관 1층 비즈니스센터 앞,35.12050997,129.0187498,0:00,24:00:00,6:00,18:00
전라남도 곡성군,목사동면사무소,전라남도 곡성군 목사동면 주목로 759,목사동면사무소 청사주차장,35.1207727,127.2999062,0:00,24:00:00,0:00,24:00:00
부산광역시 남구,용호1동 행정복지센터,"부산광역시 남구 용호로42번길 140, 용호1동주민센터 (용호동)",용호1동행정복지센터 내,35.12079303,129.1090285,9:00,18:00,,
부산광역시 남구,용호3동 행정복지센터,"부산광역시 남구 동명로145번길 33, 용호3동주민센터 (용호동)",동 행정복지센터 1층 민원실,35.12101951,129.1128084,9:00,18:00,,
부산광역시 동구,초량3동행정복지센터,"부산광역시 동구 초량상로 112, 초량3동주민센터 (초량동)",1층 민원실,35.12131906,129.0397925,9:00,18:00,,
부산광역시 남구,홈플러스 감만점,"부산광역시 남구 우암로 124, 홈플러스감만동판매시설 (감만동)",3층 주차장 입구(스마트도서관 옆),35.12154357,129.0822143,10:00,23:00,10:00,23:00
광주광역시 남구,이마트 봉선점,광주광역시 남구 봉선로 198(봉선동),정문 입구1층,35.12237704,126.9161067,10:00,23:00,10:00,23:00
전라남도 광양시,다압면사무소,"전라남도 광양시 다압면 섬진강매화로 2143, 다압면사무소",다압면사무소 앞 옥외부스,35.12315417,127.6910604,0:00,24:00:00,0:00,24:00:00
광주광역시 남구,봉선2동 행정복지센터,"광주광역시 남구 봉선로 189, 봉선2동 행정복지센터 (봉선동)",출입구,35.1232701,126.9158279,9:00,18:00,,
광주광역시 남구,남구 청소년도서관,"광주광역시 남구 제석로 100, 남구 청소년도서관 (봉선동)",출입구 반납함 옆,35.12337076,126.9077424,0:00,24:00:00,0:00,24:00:00
광주광역시 남구,남부경찰서,"광주광역시 남구 용대로74번안길 9-5, 광주남부경찰서 (봉선동)",옥내부스,35.12343342,126.9217317,0:00,24:00:00,0:00,24:00:00
광주광역시 광산구,기업지원현장민원실,"광주광역시 광산구 평동산단로 184-1, 평동종합비즈니스센터 1층 102호 (월전동)",평동종합비즈니스센터 1층 102호,35.12363746,126.7693991,9:00,18:00,,
경상남도 창원시,웅동농협 하나로마트 ,경상남도 창원시 진해구 웅동로 81(마천동),농협 하나로마트 입구,35.12451925,128.7854753,9:00,21:00,9:00,21:00
광주광역시 광산구,평동행정복지센터,"광주광역시 광산구 평동로 790, 평동행정복지센터 (옥동)",민원실 입구,35.12452441,126.7604342,0:00,24:00:00,0:00,24:00:00
광주광역시 동구,지원1동행정복지센터,"광주광역시 동구 지원로 31-9, 지원1동 복합커뮤니티센터 (소태동)",1층현관,35.1245268,126.9357213,8:30,18:00,9:00,17:00
광주광역시 서구,풍암동주민센터,광주광역시 서구 풍암1로 27(풍암동),풍암동주민센터 내,35.12475561,126.8786837,5:00,3:00,5:00,3:00
부산광역시 남구,우암동 행정복지센터,"부산광역시 남구 동제당로 368, 우암동복합청사 2층 (우암동)",2층 민원실 입구,35.12500816,129.0769129,9:00,18:00,,
경상남도 창원시,웅동1동행정복지센터,"경상남도 창원시 진해구 웅동로57번가길 6, 웅동1동행정복지센터 (마천동)",웅동1동행정복지센터,35.12575733,128.7828257,0:00,24:00:00,0:00,24:00:00
부산광역시 남구,우암동 소막마을 주민공동체센터,부산광역시 남구 우암번영로 19 (우암동),1F 계단앞,35.12608422,129.070011,9:00,18:00,,
부산광역시 동구,부산진지하철역,"부산광역시 동구 중앙대로 357 (수정동, 협성휴포레·부산진역 오션뷰)",협성휴포레 전방 부산진지하철역 1번출구 내,35.12733882,129.0464543,0:00,24:00:00,0:00,24:00:00
광주광역시 남구,샘신협 봉선지점 ,"광주광역시 남구 봉선중앙로 89, 샘신협봉선지소 (봉선동)",365코너,35.12887353,126.910802,6:00,24:00:00,6:00,24:00:00
부산광역시 동구,동구 민원실,부산광역시 동구 구청로 1(수정동),구청 종합민원실 입구,35.12929757,129.0452982,0:00,24:00:00,0:00,24:00:00
부산광역시 동구,동구 민원실2,"부산광역시 동구 구청로 1, 동구청 (수정동)",1층 로비,35.12929757,129.0452982,0:00,24:00:00,0:00,24:00:00
광주광역시 남구,봉선1동 행정복지센터,"광주광역시 남구 봉선로51번길 21, 봉선1동 행정복지센터 (봉선동)",출입구 엘레베이터 옆,35.12934674,126.9067165,9:00,18:00,,
광주광역시 광산구,도산동행정복지센터,"광주광역시 광산구 도산로 12, 도산동 행정복지센터 (도산동)",민원실 입구,35.12951272,126.7918612,9:00,18:00,,
부산광역시 남구,대연4동 행정복지센터,"부산광역시 남구 석포로91번길 96, 대연4동주민센터 (대연동)",동 행정복지센터 입구,35.12980843,129.0914149,9:00,18:00,,
부산광역시 동구,부산진세무서,부산광역시 동구 진성로 23(수정동)[부산광역시 동구 수정동 247번지 7호],민원봉사실 입구,35.13043081,129.0467321,9:00,18:00,,
부산광역시 동구,좌천동행정복지센터,"부산광역시 동구 좌천남로 19, 좌천동 주민센터 (좌천동)",1층 민원실,35.13138955,129.049153,9:00,18:00,,
경상남도 진주시,정촌면사무소,"경상남도 진주시 정촌면 정촌로 57, 정촌면사무소",정촌면사무소(옆),35.13142674,128.1026066,0:00,24:00:00,0:00,24:00:00
경상남도 창원시,진해구청 민원동,"경상남도 창원시 진해구 진해대로 1101(풍호동, 진해구청)",민원동 1층 입구,35.13147093,128.7102355,0:00,24:00:00,0:00,24:00:00
광주광역시 서구,푸른새마을금고 금호지점,"광주광역시 서구 금화로 54, 거북빌딩 108호 (금호동)",atm기기부스,35.13165165,126.8545075,8:00,24:00:00,8:00,24:00:00
광주광역시 남구,방림2동 행정복지센터,"광주광역시 남구 천변좌로566번다길 12, 방림2동 행정복지센터 (방림동)",1층 출입구 ,35.13192823,126.9219988,9:00,18:00,,
광주광역시 남구,주월1동 행정복지센터,"광주광역시 남구 회서로21번가길 13, 주월1동  행정복지센터 (주월동)",옥외부스,35.13193225,126.8933304,9:00,18:00,,
광주광역시 동구,학운동 주민센터,광주광역시 동구 의재로 53 (학동), 학운동주민센터 민원실,35.13247214,126.9335456,8:00,18:00,,
부산광역시 남구,용호1동 현장민원실,"부산광역시 남구 신선로 566-2, 용호1동 현장민원실 (용호동)",용호1동 현장민원실,35.13266955,129.1096859,9:00,18:00,,
부산광역시 남구,대연1동 행정복지센터,"부산광역시 남구 유엔평화로 24, 대연1동 주민센터 (대연동)",동행정복지센터 1층 엘리베이터 맞은 편,35.1328936,129.0917614,9:00,18:00,,
광주광역시 남구,남구청1 본관(1층) ,광주광역시 남구 봉선로 1(주월동),남구청 본관 1번 (1층)입구,35.13290647,126.9024479,0:00,24:00:00,0:00,24:00:00
광주광역시 남구,남구청2 본관(1층) ,"광주광역시 남구 봉선로 1, 남구청 (주월동)",본관 1층 종합민원실,35.13290647,126.9024479,9:00,22:00,9:00,22:00
광주광역시 남구,별관 외부 24시,"광주광역시 남구 봉선로 1, 남구청 (주월동)",별관 외부1층,35.13290647,126.9024479,0:00,24:00:00,0:00,24:00:00
전라남도 곡성군,석곡면사무소,전라남도 곡성군 석곡면 석곡로 70,옥외부스,35.13294446,127.2540939,0:00,24:00:00,0:00,24:00:00
광주광역시 남구,방림1동 행정복지센터,"광주광역시 남구 오방로 101-2, 방림1동 행정복지센터 (방림동)",2층 계단,35.13418902,126.9185627,9:00,18:00,,
광주광역시 남구,주월2동 행정복지센터,"광주광역시 남구 군분로13번길 12, 주월2동  행정복지센터 (주월동)",출입구 발열체크 맞은편,35.13468915,126.8942402,9:00,18:00,,
부산광역시 동구,범일2동주민센터,"부산광역시 동구 범일로 58, 범일2동 주민센터 (범일동)",1층 민원실,35.13511001,129.0598178,9:00,18:00,,
광주광역시 남구,백운2동 행정복지센터,"광주광역시 남구 진다리로6번길 9, 백운2동  행정복지센터 (백운동)",출입구 ,35.13610088,126.9023131,9:00,18:00,,
부산광역시 남구,문현4동 행정복지센터,"부산광역시 남구 수영로 12, 3층 (문현동, 세종그랑시아아파트)",동행정복지센터 출입문 옆,35.13619559,129.0691279,9:00,18:00,,
광주광역시 남구,광주기독교병원,광주광역시 남구 양림로 37(양림동),1층 접수창구 옆,35.13623251,126.9115031,0:00,24:00:00,8:00,23:00
부산광역시 남구,구청 입구,부산광역시 남구 못골로 19(대연동),부산 남구청 2층 민원실 입구(동측),35.13652164,129.0844286,0:00,24:00:00,0:00,23:59
부산광역시 남구,구청 민원실,"부산광역시 남구 못골로 19, 남구청 (대연동)",남구청 2층 민원실,35.13652164,129.0844286,9:00,18:00,,
광주광역시 광산구,송정2동행정복지센터 ,광주광역시 광산구 광산로30번길 65(송정동),민원실 입구,35.13707956,126.7969059,0:00,24:00:00,0:00,24:00:00
광주광역시 광산구,광주송정역사,광주광역시 광산구 상무대로 201(송정동),광주송정역사2층 매표소 앞,35.13721225,126.790662,0:00,24:00:00,0:00,24:00:00
경상남도 창원시,풍호동행정복지센터,"경상남도 창원시 진해구 진해대로1034번길 6(풍호동, 풍호동주민센터)",풍호동주민센터 입구,35.13757993,128.7073261,0:00,24:00:00,0:00,23:55
부산광역시 남구,문현3동 행정복지센터,"부산광역시 남구 고동골로4번길 7-18, 문현3동주민센터 (문현동)",동행정복지센터 출입구 안,35.13814557,129.0716877,9:00,18:00,,
광주광역시 남구,백운1동 행정복지센터,"광주광역시 남구 독립로54번길 20, 백운1동  행정복지센터 (백운동)",내부 출입구 ,35.13831256,126.9039007,9:00,18:00,,
부산광역시 남구,대연5동 행정복지센터,"부산광역시 남구 진남로46번길 7, 대연5동주민센터 (대연동)",동 행정복지센터 1층 민원실,35.13845516,129.0901611,9:00,18:00,,
광주광역시 동구,조선대학교병원,광주광역시 동구 필문대로 365(학동)[광주광역시 동구 학동 30번지 1호],조선대학교 병원 본관 1층,35.1385486,126.9281861,7:00,20:00,7:00,20:00
부산광역시 강서구,에코델타시티 현장민원센터,"부산광역시 강서구 에코중앙1로 33 (강동동, 에코델타 스마트시티 수자인)",관리사무소 입구,35.13960352,128.9164677,9:00,18:00,,
부산광역시 남구,대연3동 행정복지센터,"부산광역시 남구 수영로 345, 상가동 1층 (대연동, 대연힐스테이트푸르지오)",대연3동행정복지센터 입구,35.13988753,129.1035202,0:00,24:00:00,0:00,24:00:00
광주광역시 광산구,광주공항 KIOSK,광주광역시 광산구 상무대로 420-25(신촌동),1층 대합실,35.13995121,126.8107749,6:00,24:00:00,6:00,24:00:00
광주광역시 남구,양림동 행정복지센터,"광주광역시 남구 백서로 94, 양림커뮤니티센터 (양림동)",행정복지센터 2층 출입구,35.14050648,126.9164232,9:00,18:00,,
광주광역시 광산구,송정1동행정복지센터,"광주광역시 광산구 광산로 70, 송정다누리 (송정동)",송정다누리 1층,35.14071416,126.7987692,9:00,18:00,,
부산광역시 동구,좋은문화병원,부산광역시 동구 범일로 119(범일동),좋은문화병원 정문입구 안,35.14078971,129.0590486,0:00,24:00:00,0:00,24:00:00
광주광역시 남구,월산5동 행정복지센터,"광주광역시 남구 군분로82번길 14, 월산5동  행정복지센터 (월산동)",1층 엘레베이터 앞,35.14090962,126.8929894,9:00,18:00,,
부산광역시 사상구,승학새마을금고 으뜸지점,부산광역시 사상구 대동로 152 (학장동),ATM 부스안,35.1410128,128.9837271,7:00,23:30,7:00,23:30
광주광역시 광산구,광산구청교통행정과민원실,"광주광역시 광산구 상무대로 268, kt송정빌딩 (송정동)",1층 교통행정과 민원실,35.14153854,126.7956927,8:00,18:00,8:00,18:00
부산광역시 부산진구,시민장례식장,"부산광역시 부산진구 자유평화로 31, 시민장례식장 (범천동)",방풍실,35.14161442,129.0630069,0:00,24:00:00,0:00,24:00:00
광주광역시 동구,전남대병원 1병동,광주광역시 동구 제봉로 42(학동)[광주광역시 동구 학동 8번지],전남대학교병원 1동 1층 로비,35.1420142,126.9219842,7:00,20:00,7:00,20:00
부산광역시 남구,문현1동 행정복지센터,"부산광역시 남구 고동골로60번길 1, 문현1동주민센터 (문현동)",동 행정복지센터 내,35.14253478,129.0713286,9:00,18:00,,
부산광역시 수영구,남천1동행정복지센터,"부산광역시 수영구 남천동로 13, 남천1동주민센터 (남천동)",후문 안쪽 계단실,35.14268694,129.1103347,9:00,18:00,,
전라남도 함평군,손불면사무소,전라남도 함평군 손불면 손불중앙길 76-9[전라남도 함평군 손불면 대전리223번지 1호],손불면사무소 사무실 입구,35.14327974,126.4320326,0:00,24:00:00,0:00,24:00:00
경상남도 창원시,덕산동행정복지센터,"경상남도 창원시 진해구 동진로157번길 5, 덕산동행정복지센터 (풍호동)",덕산동행정복지센터 입구,35.1433504,128.7037668,0:00,24:00:00,0:00,24:00:00
광주광역시 서구,화정3동 행정복지센터,"광주광역시 서구 월드컵4강로68번길 21, 화정3동주민센터 (화정동)",1층 민원실,35.14345494,126.8769079,9:00,18:00,,
부산광역시 수영구,수영세무서,부산광역시 수영구 남천동로19번길 28(남천동),수영세무서 1층 로비,35.14353551,129.1112372,9:00,18:00,,
부산광역시 수영구,남천2동행정복지센터,"부산광역시 수영구 광안해변로 99, 남천2동주민센터 (남천동)",정문 출입구 안쪽,35.14381492,129.1147468,9:00,18:00,,
광주광역시 동구,서남동행정복지센터,"광주광역시 동구 서남로 14, 서남동주민센터 (서석동)",민원실 앞,35.14495096,126.923163,9:00,18:00,,
광주광역시 광산구,신흥동행정복지센터,"광주광역시 광산구 신흥동안길 9, 신흥동행정복지센터 (신촌동)",민원실 입구,35.14533803,126.8004985,9:00,18:00,,
부산광역시 수영구,수영구청 민원실,부산광역시 수영구 남천동로 100(남천동),수영구청민원실,35.14537016,129.1123694,0:00,24:00:00,0:00,24:00:00
광주광역시 남구,사직동 행정복지센터,"광주광역시 남구 중앙로95번길 14, 사직동 행정복지센터 (서동)",정문 입구 좌측 ,35.14575378,126.9079942,9:00,18:00,,
광주광역시 동구,동구청민원실,광주광역시 동구 서남로 1(서석동)[광주광역시 동구 서석동 31번지],동구청1층 민원실 입구 좌측,35.1461417,126.9230932,0:00,24:00:00,0:00,24:00:00
부산광역시 남구,BIFC상가몰,부산광역시 남구 문현금융로 40(문현동),BIFC 상가건물 1층,35.14649173,129.0658548,6:00,23:00,6:00,23:00
광주광역시 남구,월산4동 행정복지센터,"광주광역시 남구 대남대로390번길 11, 월산4동  행정복지센터 (월산동)",내부 출입구 로비,35.14669798,126.8907651,9:00,18:00,,
광주광역시 서구,상무역,"광주광역시 서구 상무대로 지하 777, 상무역 (마륵동)",5번 출구,35.14680916,126.8487864,5:00,0:00,5:00,0:00
경상남도 창원시,마산시농협 남마산지점,경상남도 창원시 마산합포구 현동로 111 (현동),365코너,35.14686921,128.5581534,8:00,23:00,8:00,23:00
경상남도 창원시,창원시축산농협 진해지점,"경상남도 창원시 진해구 진해대로921번길 4(자은동, 축협)",축협 365코너 내,35.1471201,128.7074181,6:00,24:00:00,6:00,24:00:00
경상남도 창원시,자은동 행정복지센터,"경상남도 창원시 진해구 덕산로51번길 12, 자은동행정복지센터 (자은동)",자은동행정복지센터,35.14716551,128.7054675,0:00,24:00:00,0:00,24:00:00
부산광역시 사상구,주례3동 행정복지센터,"부산광역시 사상구 냉정로 10, 주례3동주민센터 (주례동)",주례3동 행정복지센터 ,35.1473504,129.0014176,0:00,24:00:00,0:00,24:00:00
광주광역시 남구,월산동 행정복지센터,"광주광역시 남구 덕림2길 3, 월산동  행정복지센터 (월산동)",후문 출입구,35.14764427,126.9026629,9:00,18:00,,
광주광역시 동구,광주세무서,광주광역시 동구 중앙로 154(호남동),광주세무서 1층 민원봉사실,35.14765759,126.9130713,8:30,18:00,,
광주광역시 동구,지산2동행정복지센터,"광주광역시 동구 지호로 51, 지산2동주민센터 (지산동)",행정복지센터 정문 앞(외부),35.14797636,126.9344925,0:00,24:00:00,,
부산광역시 부산진구,가야2동주민센터,"부산광역시 부산진구 엄광로147번길 14, 2층 (가야동)",민원실입구,35.1480976,129.0313292,9:00,18:00,,
광주광역시 서구,화정2동주민센터,광주광역시 서구 화운로 94(화정동),현관(힐스테이트상가동),35.14836938,126.8807341,5:00,3:00,5:00,3:00
광주광역시 광산구,이야기꽃도서관,"광주광역시 광산구 선운중앙로67번길 6, 선운이야기꽃도서관/어룡동행정복지센터 (선암동)",1층 도서관 입구,35.14841087,126.7798951,0:00,24:00:00,0:00,24:00:00
광주광역시 동구,지산1동 주민센터,"광주광역시 동구 지산로 57, 지산1동주민센터 (지산동)",동사무소 내 민원창구 앞,35.14900645,126.9327183,9:00,18:00,,
광주광역시 동구,충장동 행정복지센타,"광주광역시 동구 충장로58번길 16, 충장동 주민센터 (충장로4가)",1층외부,35.14918449,126.9128041,0:00,24:00:00,0:00,24:00:00
경상남도 창원시,이동행정복지센터,경상남도 창원시 진해구 냉천로12번길 9(이동),이동행정복지센터 입구,35.1493592,128.6999136,0:00,24:00:00,0:00,23:50
부산광역시 수영구,금련산지하철역,"부산광역시 수영구 수영로 지하482, 도시철도 금련산역 (남천동)",지하1층 만남의장소내,35.14974393,129.1109573,0:00,24:00:00,0:00,24:00:00
광주광역시 서구,치평동주민센터,광주광역시 서구 상무공원로 62(치평동),현관,35.14990895,126.8433325,5:00,3:00,5:00,3:00
광주광역시 서구,치평동행정복지센터2,"광주광역시 서구 상무공원로 62, 치평동주민센터 (치평동)",치평동행정복지센터 입구,35.14990895,126.8433325,0:00,24:00:00,0:00,24:00:00
광주광역시 서구,상무새마을금고본점,"광주광역시 서구 상무대로 874, 1층 (쌍촌동)",ATM부스,35.14994459,126.8576086,8:00,24:00:00,8:00,24:00:00
부산광역시 사상구,주례2동 행정복지센터,"부산광역시 사상구 주례로10번길 15, 주례2동 행정복지센터 (주례동)",민원실 내부,35.15006559,129.0104206,9:00,18:00,,
경상남도 창원시,충무동 행정복지센터,"경상남도 창원시 진해구 중원로74번길 6, 충무동행정복지센터 (대흥동)",충무동행정복지센터 입구,35.15050764,128.6603422,0:00,24:00:00,0:00,24:00:00
광주광역시 동구,광주지방법원,광주광역시 동구 준법로 7-12(지산동)[광주광역시 동구 지산동 342번지],법원 무인등본 발급실,35.15056861,126.9340434,9:00,18:00,,
부산광역시 강서구,녹산동 지사민원센터,"부산광역시 강서구 과학산단2로20번길 5, 지사문화회관 1층 (지사동)",민원실 앞 방풍공간,35.15093108,128.8312888,9:00,18:00,,
광주광역시 동구,동명동행정복지센터,"광주광역시 동구 동명로26번길 13, 동명동주민센터 (동명동)",동명동 출입구,35.15118061,126.9251616,9:00,18:00,,
부산광역시 사상구,냉정역사,"부산광역시 사상구 가야대로 지하 362-1, 냉정역 (주례동)","4,6번 출구 라인 승차권자동발매기 옆",35.15126769,129.0125241,5:00,24:00:00,5:00,24:00:00
경상남도 창원시,국민은행 진해지점,"경상남도 창원시 진해구 중원로80번길 21(송학동, 국민은행)",국민은행 365코너,35.15126772,128.6622294,7:00,23:00,7:00,23:00
부산광역시 사상구,주례1동행정복지센터(옥외부스),"부산광역시 사상구 가야대로255번길 17, 주례1동 행정복지센터 (주례동)",동사 측면 행정게시판 옆 옥외부스,35.15133904,129.0010988,0:00,24:00:00,0:00,24:00:00
광주광역시 광산구,어룡신협소촌점,광주광역시 광산구 소촌로 85(소촌동),어룡신협 소촌점 내,35.15176392,126.7927217,7:00,23:00,7:00,23:00
경상남도 창원시,농협 진해중앙지점,"경상남도 창원시 진해구 벚꽃로 69(화천동, 농협)",농협 365코너내,35.151829,128.6633922,7:00,23:00,7:00,23:00
경상남도 창원시,중앙민원센터,"경상남도 창원시 진해구 충무로 69, 중앙동주민센터 (수송동)",중앙민원센터 입구,35.15183689,128.6556722,9:00,18:00,,
광주광역시 광산구,한마음새마을금고우산지점,광주광역시 광산구 금봉로 106-1 (우산동),"1층 365코너, 우산동중흥s클래스센트럴 상가 내",35.15185939,126.8098814,6:00,23:30,6:00,23:30
경상남도 진주시,진주시가좌사회복지관분관,경상남도 진주시 진주역로95번길 6(가좌동),가호동행정복지센터 1층 내부,35.15192099,128.114172,9:00,18:00,,
경상남도 진주시,가호동행정복지센터(외부),경상남도 진주시 진주역로95번길 6(가좌동),민원 주차장 옆,35.15192099,128.114172,0:00,24:00:00,0:00,24:00:00
광주광역시 서구,서구청,광주광역시 서구 경열로 33(농성동),서구청 민원봉사과 출입문 옆,35.15202903,126.8901122,5:00,3:00,5:00,3:00
광주광역시 서구,KDB생명빌딩,"광주광역시 서구 천변좌로 268, 케이디비생명보험(주) (양동)",1층로비,35.15234363,126.9046146,8:00,19:00,8:00,19:00
부산광역시 남구,대동골 문화센터,부산광역시 남구 황령대로319번가길 147(대연동),대동골문화센터 입구,35.15240486,129.0889884,0:00,24:00:00,0:00,24:00:00
부산광역시 사상구,사상구청민원실,부산광역시 사상구 학감대로 242(감전동),구청 1층 중앙 현관 옆,35.15255072,128.9914561,0:00,24:00:00,0:00,24:00:00
부산광역시 사상구,사상구청 본관(옥외부스),"부산광역시 사상구 학감대로 242, 사상구청 (감전동)",본관 출입문 앞 옥외부스,35.15255072,128.9914561,0:00,24:00:00,0:00,24:00:00
전라남도 함평군,신광면사무소,"전라남도 함평군 신광면 신광중앙길 63, 신광면사무소, 신광노인복지센터",1층 민원실 입구,35.15276909,126.4961357,0:00,24:00:00,,
부산광역시 사상구,부산보훈병원,"부산광역시 사상구 백양대로 420, 보훈병원 (주례동)",본관 1층 atm기 설치장소,35.15289186,129.0082523,0:00,24:00:00,0:00,24:00:00
부산광역시 사상구,새마을금고 신주례지점,부산광역시 사상구 백양대로 370 (주례동),객장 안,35.15301858,129.0113524,9:00,18:00,,
경상남도 창원시,홈플러스 진해점,"경상남도 창원시 진해구 충장로 356(경화동, 홈플러스)",홈플러스 2층,35.1532041,128.6911703,10:00,23:00,9:30,23:59
부산광역시 부산진구,가야1동주민센터 ,부산광역시 부산진구 가야대로572번길 22(가야동)[부산광역시 부산진구 가야동 296번지 1호],가야1동주민센터 1층 민원실,35.15324525,129.0342875,9:00,18:00,,
부산광역시 부산진구,개금동새마을금고,"부산광역시 부산진구 가야대로 493, 개금동새마을금고 본점 (개금동)",365일코너,35.15344385,129.0260042,7:00,23:30,7:00,23:30
부산광역시 강서구,녹산동 행정복지센터,"부산광역시 강서구 가락대로900번가길 32, 녹산동 주민센터 (범방동)",민원실 입구,35.15353116,128.8838094,9:00,18:00,,
광주광역시 동구,산수2동행정복지센터,"광주광역시 동구 필문대로191번길 43-24, 산수2동주민센터 (산수동)",출입구,35.15371024,126.9362901,8:30,18:00,,
경상남도 창원시,자은민원센터,"경상남도 창원시 진해구 장복대로 153, 자은동 민원센터 (자은동)",자은민원센터 입구,35.15381128,128.7130708,0:00,24:00:00,0:00,24:00:00
경상남도 창원시,태백동 행정복지센터,"경상남도 창원시 진해구 중초로9번길 38, 태백동행정복지센터 (경화동)",태백동행정복지센터 입구,35.15387728,128.6773874,0:00,24:00:00,0:00,24:00:00
광주광역시 동구,동광주새마을금고산수지점,광주광역시 동구 경양로 321 (산수동),동광주새마을금고산수지점 365,35.15400494,126.9244451,7:00,23:50,7:00,23:50
부산광역시 수영구,광안4동행정복지센터,부산광역시 수영구 수영로 541(광안동),동사로비,35.1541028,129.1119341,9:00,18:00,,
부산광역시 사상구,감전동 행정복지센터,"부산광역시 사상구 새벽시장로56번길 20, 감전동 주민센터 (감전동)",행정복지센터 민원실 내부,35.15420138,128.9794076,9:00,18:00,,
경상남도 창원시,경화동 행정복지센터,"경상남도 창원시 진해구 경화로8번길 5, 경화동행정복지센터 (경화동)",경화동행정복지센터 입구,35.15434491,128.6868959,0:00,24:00:00,0:00,24:00:00
부산광역시 부산진구,전포1동주민센터  ,"부산광역시 부산진구 서전로68번길 75, 전포1동주민센터(생활문화센터) (전포동)",전포1동주민센터 민원실 내,35.1543468,129.0673912,9:00,18:00,,
부산광역시 사상구,북부산세무서,부산광역시 사상구 학감대로 263(감전동),북부산세무서 1층 민원봉사실 입구 ,35.15465879,128.9902751,9:00,18:00,,
경상남도 창원시,연세에스병원,"경상남도 창원시 진해구 해원로32번길 13, 진해연세병원 (이동)",본관 1층 휴게실,35.15469461,128.6983998,0:00,24:00:00,0:00,24:00:00
광주광역시 동구,광주은행 본점,광주광역시 동구 제봉로 225(대인동)[광주광역시 동구 대인동 7번지 12호],광주은행 본점 1층,35.15482697,126.9128814,8:00,22:00,8:00,22:00
광주광역시 서구,양동 행정복지센터,"광주광역시 서구 천변좌로222번길 3-2, 양동주민센터 (양동)",1층,35.15489274,126.9008763,9:00,18:00,,
경상남도 창원시,병암동 행정복지센터,"경상남도 창원시 진해구 경화로16번길 31, 병암동행정복지센터 (경화동)",병암동행정복지센터 입구,35.15497706,128.6895578,0:00,24:00:00,0:00,24:00:00
광주광역시 북구,광주고용복지플러스센터,광주광역시 북구 금남로 121(북동)[광주광역시 북구 북동 190번지 1호],광주고용복지플러스센터 내,35.15540208,126.9081734,9:00,18:00,,
부산광역시 수영구,광안2동행정복지센터,"부산광역시 수영구 광안로16번길 22, 광안2동주민센터 (광안동)",동사로비,35.15576224,129.1138318,9:00,18:00,,
부산광역시 부산진구,개금3동주민센터,"부산광역시 부산진구 개금본동로 88, 개금3동주민센터 지하1층 (개금동)[*미고시]",개금3동 주민센터 지하1층,35.15578056,129.0219827,0:00,24:00:00,0:00,24:00:00
광주광역시 서구,화정1동주민센터,광주광역시 서구 내방로338번길 11(화정동)[광주광역시 서구 화정동 71번지 81호],주민센터 민원홀 내,35.15635008,126.8777207,9:00,18:00,,
경상남도 하동군,청암면 무인민원발급기,경상남도 하동군 청암면 청학로 672[경상남도 하동군 청암면 평촌리611번지],청암면사무소 내,35.15640626,127.799511,8:00,19:00,,
광주광역시 서구,농성1동 행정복지센터,"광주광역시 서구 상무대로1189번길 23, 농성1동주민센터 (농성동)",1층,35.15666149,126.8897324,5:00,3:00,5:00,3:00
경상남도 진주시,경상대학교,경상남도 진주시 진주대로 501 (가좌동),GNU컨벤션센터 1층,35.15671413,128.0980014,0:00,24:00:00,0:00,24:00:00
광주광역시 동구,계림2동행정복지센터,"광주광역시 동구 계림로30번길 15 (계림동, 푸른길 두산위브)",1층 민원실 입구 우측,35.15708732,126.9254529,8:30,18:00,,
부산광역시 수영구,민락동행정복지센터,부산광역시 수영구 광안해변로295번길 20(민락동),민락동행정복지센터 본관 1층 로비,35.15722212,129.1254464,9:00,18:00,,
광주광역시 동구,산수1동행정복지센터,"광주광역시 동구 무등로449번길 12, 산수1동주민센터 (산수동)",민원실 입구,35.15729145,126.9307349,9:00,18:00,,
광주광역시 북구,중앙동 행정복지센터,"광주광역시 북구 금재로 30, 중앙동 행정복지센터 (유동)",1층 로비,35.15732039,126.9065781,0:00,24:00:00,0:00,24:00:00
광주광역시 서구,양3동 행정복지센터,광주광역시 서구 상무대로1223번길 16 (양동),1층,35.15752285,126.8940007,9:00,18:00,,
부산광역시 부산진구,도시철도서면역 ,"부산광역시 부산진구 중앙대로 지하 730, 서면역 고객센터 옆 (부전동)",도시철도 부전역 13번출구로 내려가 우회전 후 50m앞,35.15776406,129.0590358,5:00,24:00:00,5:00,24:00:00
부산광역시 부산진구,당감2동주민센터,부산광역시 부산진구 가야대로703번길 13(당감동)[부산광역시 부산진구 당감동 71번지 7호 당감2동주민센터],주민센터민원실 입구,35.15789376,129.0478893,9:00,18:00,,
광주광역시 동구,계림1동주민센터,"광주광역시 동구 경양로247번길 26, 계림1동주민센터 (계림동)",주민센터 내부,35.15853136,126.9196354,9:00,18:00,,
경상남도 창원시,여좌동행정복지센터,"경상남도 창원시 진해구 여명로 77, 여좌동행정복지센터 (여좌동)",여좌동행정복지센터 입구,35.15854797,128.6603428,0:00,24:00:00,0:00,24:00:00
광주광역시 북구,해피뷰병원,"광주광역시 북구 경열로 216, 해피뷰병원 (유동)",입구 앞 ,35.15864167,126.9067731,0:00,24:00:00,0:00,24:00:00
광주광역시 서구,신세계백화점,광주광역시 서구 무진대로 932(광천동)[광주광역시 서구 광천동 49번지 1호],신세계백화점 내 ,35.15967717,126.8826309,11:00,20:00,11:00,20:00
부산광역시 해운대구,우3동주민센터,부산광역시 해운대구 해운대해변로 104(우동),1층 민원실 입구,35.15973324,129.143307,9:00,18:00,,
광주광역시 광산구,우산동행정복지센터,광주광역시 광산구 무진대로 246-12(우산동),우산동주민센터 내 입구,35.16023754,126.8070405,0:00,24:00:00,0:00,24:00:00
경상남도 창원시,석동행정복지센터,"경상남도 창원시 진해구 돌리로15번길 25, 석동행정복지센터 (석동)",석동행정복지센터 입구,35.16033128,128.6982997,0:00,24:00:00,0:00,23:55
광주광역시 동구,계림동삼성홈플러스,"광주광역시 동구 무등로 314, 900호 (계림동)[광주광역시 동구 계림동 505번지]",홈플러스 계림점 1층,35.16143883,126.9166397,10:00,24:00:00,10:00,24:00:00
광주광역시 북구,NC백화점 광주역점,광주광역시 북구 경열로 249(신안동),1층,35.16148525,126.9070987,11:00,20:00,11:00,20:00
부산광역시 부산진구,전포2동주민센터 ,"부산광역시 부산진구 동성로118번길 34, 전포2동복합문화센터 전포2동사 (전포동)",전포2동주민센터 민원실 내,35.1616829,129.0662022,9:00,18:00,0:00,24:00:00
광주광역시 북구,중흥1동 행정복지센터,"광주광역시 북구 중흥로183번길 7, 중흥1동 행정복지센터 (중흥동)",1층 계단 옆,35.16168524,126.9137767,8:30,18:00,,
광주광역시 광산구,우산동농협 KIOSK,광주광역시 광산구 무진대로 285(우산동),1층365코너,35.16185909,126.8115694,7:00,22:00,7:00,22:00
광주광역시 북구,광주북부새마을금고(본점),광주광역시 북구 서림로 109-1 (임동),새마을금고 내부,35.16195822,126.8980504,8:00,23:00,8:00,23:00
부산광역시 해운대구,중2동행정복지센터,"부산광역시 해운대구 좌동순환로433번길 34, 중2동 주민자치센터 (중동)",민원실,35.16200528,129.1792913,9:00,18:00,,
광주광역시 광산구,삼도동행정복지센터,"광주광역시 광산구 오운로 433-1, 삼도동행정복지센터 (도덕동)",민원실 입구,35.16220711,126.6975795,0:00,24:00:00,0:00,24:00:00
부산광역시 사상구,사상역사,부산광역시 사상구 사상로 지하 203(괘법동),도시철도 사상역내 (4번출구 근처),35.16246458,128.9846366,5:00,24:00:00,5:00,24:00:00
경상남도 하동군,악양면 무인민원발급기,경상남도 하동군 악양면 악양서로 357[경상남도 하동군 악양면 정서리285번지 1호],악양면사무소 내,35.16256033,127.7091926,8:00,19:00,9:00,18:00
부산광역시 부산진구,부산진구청 ,부산광역시 부산진구 시민공원로 30(부암동),1층로비,35.16283064,129.0531883,0:00,24:00:00,0:00,24:00:00
부산광역시 부산진구,부산진구청 좌측,"부산광역시 부산진구 시민공원로 30, 부산진구청 (부암동)",1층 민원여권과 앞 (좌측),35.16283064,129.0531883,0:00,24:00:00,0:00,24:00:00
부산광역시 수영구,광안1동행정복지센터,부산광역시 수영구 광일로14번길 17(광안동),광안1동행정복지센터 1층 민원실,35.16291054,129.1124011,9:00,18:00,,
광주광역시 북구,두암3동 행정복지센터,"광주광역시 북구 삼정로3번길 25, 두암3동 행정복지센터 (두암동)",1층 민원실 입구,35.16301732,126.9347551,8:30,18:00,,
부산광역시 부산진구,부암1동주민센터,부산광역시 부산진구 신천대로241번길 41(부암동)[부산광역시 부산진구 부암동 226번지 부암1동주민센터 민원실],민원실입구,35.1632873,129.0485619,9:00,18:00,,
경상남도 진주시,진주남부어린이도서관 ,"경상남도 진주시 가호로44번길 4, 남부어린이도서관 (가좌동)",북카페 앞 ,35.16338726,128.1109149,0:00,24:00:00,0:00,24:00:00
부산광역시 부산진구,부전1동주민센터 ,부산광역시 부산진구 범전로5번길 13(부전동)[부산광역시 부산진구 부전동 25번지 1호],주민센터 1층 민원실 입구,35.1635131,129.0630024,0:00,24:00:00,0:00,24:00:00
광주광역시 북구,풍향동 행정복지센터,"광주광역시 북구 필문대로29번길 10, 풍향동 행정복지센터 (풍향동)",1층 작은도서관 앞,35.16447448,126.9232702,8:30,18:00,,
광주광역시 서구,광천동 행정복지센터,"광주광역시 서구 광천2길 9, 광천동주민센터 (광천동)",1층 민원실,35.16449152,126.8801613,9:00,18:00,,
광주광역시 서구,광주중부신협본점,"광주광역시 서구 죽봉대로119번길 10, 광주중부신협 (광천동)",ATM창구,35.16460972,126.8827699,7:00,24:00:00,7:00,24:00:00
광주광역시 서구,코코식자재마트 버들점,광주광역시 서구 상무버들로40번길 1(유촌동),코코식자재마트 버들점,35.16474943,126.8587706,7:00,23:00,7:00,23:30
광주광역시 서구,유덕동 행정복지센터,광주광역시 서구 유덕로 24 (유촌동),1층 현관입구,35.16511006,126.8518261,5:00,3:00,5:00,5:00
광주광역시 북구,임동 행정복지센터,"광주광역시 북구 서림로 53, 임동 행정복지센터 (임동)",1층 민원실 입구,35.16587272,126.8942491,8:30,18:00,,
경상남도 창원시,삼귀민원센터,"경상남도 창원시 성산구 귀산로58번길 8, 삼귀민원센터 (귀산동)",출입구,35.16613253,128.6154147,0:00,24:00:00,0:00,24:00:00
부산광역시 수영구,수영지하철역,"부산광역시 수영구 수영로 677(광안동, 수영역10번출구)",지하철 수영역 10번출구,35.16625902,129.1145602,4:00,3:00,4:00,3:00
광주광역시 북구,서방새마을금고 본점(우산동),광주광역시 북구 동문대로 19-1 (우산동),365코너,35.16665312,126.9193267,7:00,23:00,7:00,23:00
경상남도 진주시,판문동행정복지센터,경상남도 진주시 새평거로 55(평거동),판문동행정복지센터 입구,35.16685514,128.0546287,0:00,24:00:00,0:00,24:00:00
경상남도 진주시,한일병원,"경상남도 진주시 범골로 17, 한일병원 (충무공동)",1층 원무과 옆,35.16696429,128.1285481,0:00,24:00:00,0:00,24:00:00
부산광역시 수영구,민락지하철역,"부산광역시 수영구 수영로 지하 769, 도시철도 민락역사내 1번출구 현금인출기옆 (민락동)",도시철도 민락역사내 1번출구 현금인출기옆,35.16706583,129.1221011,5:00,24:00:00,5:00,24:00:00
부산광역시 강서구,대저2동 부산은행 서부산유통단지점,"부산광역시 강서구 유통단지1로 41, 티플렉스 본관동 101호 부산은행 서부산유통단지점 (대저2동)",부산은행 서부산유통단지점 365코너 내부,35.16733846,128.9558197,7:00,22:00,7:00,22:00
광주광역시 북구,신안동 행정복지센터,"광주광역시 북구 자산로 66, 신안동 행정복지센터 (신안동)",1층 민원실 입구,35.16744184,126.898726,8:30,18:00,,
부산광역시 수영구,광안3동행정복지센터,"부산광역시 수영구 연수로404번길 27, 광안3동 행정복지센터 (광안동)",광안3동행정복지센터 옥외,35.16753299,129.1124789,0:00,24:00:00,0:00,24:00:00
부산광역시 해운대구,해운대세무서 민원실,"부산광역시 해운대구 좌동순환로 17, 해운대세무서 1층 (좌동)",해운대세무서 민원실(1층),35.16807809,129.1664436,9:00,18:00,,
전라남도 화순군,화순군백아면,"전라남도 화순군 백아면 학천길 26, 백아면행정복지센터",백아면사무소 내,35.16809445,127.1322872,8:30,18:00,,
부산광역시 부산진구,당감4동주민센터,부산광역시 부산진구 백양순환로 40 (당감동),1층 방풍실 입구,35.16822222,129.0334223,0:00,24:00:00,0:00,24:00:00
부산광역시 부산진구,부암3동주민센터,"부산광역시 부산진구 백양순환로110번길 25, 부암3동 주민센터 (부암동)",1층 주민센터 출입구 오른쪽,35.16901607,129.0396532,0:00,24:00:00,0:00,24:00:00
광주광역시 북구,중흥동 행정복지센터,"광주광역시 북구 당뫼로 33, 중흥2,3동 통합청사 및 공영주차장 (중흥동)",1층 민원실 입구,35.16909167,126.9140997,8:30,18:00,,
부산광역시 해운대구,좌2동행정복지센터2,"부산광역시 해운대구 좌동순환로 302, 좌2동주민센터 (좌동)",민원실 입구,35.169094,129.1825976,9:00,18:00,,
경상남도 진주시,문산읍사무소,경상남도 진주시 문산읍 동부로587번길 12,문산읍사무소 앞(전용부스),35.16915203,128.1643512,0:00,24:00:00,0:00,24:00:00
광주광역시 서구,나라키움광주통합청사,광주광역시 서구 천변우하로 391(동천동),나라키움광주통합청사 1층,35.16924747,126.8629315,8:00,18:00,,
부산광역시 수영구,수영동행정복지센터,"부산광역시 수영구 수영성로 36, 수영동주민센터 (수영동)",정문옆,35.17051001,129.1160513,0:00,24:00:00,0:00,24:00:00
광주광역시 서구,동천동 행정복지센터,광주광역시 서구 유림로98번길 8(동천동)[광주광역시 서구 동천동 611번지],동천동주민센터 민원실,35.17085265,126.864732,5:00,3:00,5:00,3:00
부산광역시 해운대구,좌1동 주민센터,부산광역시 해운대구 양운로 91(좌동),1층 민원실,35.1708852,129.1742076,9:00,18:00,,
광주광역시 북구,두암1동 행정복지센터,"광주광역시 북구 동문대로110번길 77, 두암1동 행정복지센터 (두암동)",1층 민원실 입구,35.17103624,126.9289653,8:30,18:00,,
경상남도 진주시,일반성면사무소,"경상남도 진주시 일반성면 동부로1959번길 2, 일반성면사무소",후문 입구,35.17127783,128.2771658,0:00,24:00:00,0:00,24:00:00
부산광역시 사상구,사상중앙새마을금고 본점,"부산광역시 사상구 사상로 297, 새마을금고 (덕포동)",1층 365창구 내,35.17135307,128.9827977,0:30,24:00:00,0:30,24:00:00
광주광역시 광산구,월곡1동행정복지센터 ,"광주광역시 광산구 사암로 306, 월곡1동 주민센터 (월곡동)",민원실 입구,35.17187841,126.8097905,0:00,24:00:00,0:00,24:00:00
부산광역시 사상구,사상생활사박물관,"부산광역시 사상구 낙동대로1258번길 36, 사상생활사박물관 (삼락동)",사상생활사박물관 1층 엘리베이터 옆,35.1720257,128.9787269,9:00,18:00,9:00,18:00
부산광역시 해운대구,좌3동주민센터,부산광역시 해운대구 좌동순환로 65(좌동),좌3동주민센터 민원실 입구,35.17226436,129.1666133,9:00,18:00,,
광주광역시 북구,(구)중흥3동청사,"광주광역시 북구 서방로40번길 12, 중흥3동 행정복지센터 (중흥동)",중흥3동행정복지센터 입구(개방화장실 쪽),35.17228738,126.9171301,0:00,24:00:00,0:00,24:00:00
부산광역시 사상구,사상중앙새마을금고 덕포지점,부산광역시 사상구 덕상로 9 (덕포동),AMT기 부스,35.17247119,128.9886262,0:30,23:30,0:30,23:30
광주광역시 북구,운암2동 행정복지센터,"광주광역시 북구 죽봉대로 214, 운암2동 행정복지센터 (운암동)",1층 민원실 입구,35.17254838,126.8850741,8:30,18:00,,
경상남도 김해시,김해서부문화센터,경상남도 김해시 율하2로 210 (율하동),1층 주차장 출구 옆,35.17260447,128.8209441,0:00,24:00:00,0:00,24:00:00
부산광역시 부산진구,연지동주민센터,"부산광역시 부산진구 국악로 30, 연지동 주민센터 (연지동)",연지동주민센터 정문,35.17277559,129.0528376,0:00,24:00:00,0:00,24:00:00
부산광역시 부산진구,양정2동주민센터 ,부산광역시 부산진구 양정로15번길 26(양정동)[부산광역시 부산진구 양정동 52번지 2호],양정2동 주민센터 민원실 입구,35.17287335,129.0757263,9:00,18:00,,
광주광역시 북구,북구청 교통행정과,"광주광역시 북구 용봉로138번길 11, 효죽공영주차장 (중흥동)",교통행정과 민원실 ,35.17309589,126.9117554,8:30,18:00,,
광주광역시 북구,우산동 행정복지센터,광주광역시 북구 동문대로 109 (우산동),2층 우산동 행정복지센터 입구,35.17310964,126.9249397,8:30,18:00,,
광주광역시 광산구,운남동행정복지센터,광주광역시 광산구 목련로219번길 25(운남동),운남동주민센터 입구,35.17330348,126.8223936,0:00,24:00:00,0:00,24:00:00
부산광역시 연제구,연산3동행정복지센터,"부산광역시 연제구 연수로218번길 4, 연산3동주민센터 (연산동)",1층 민원실 내부,35.17331683,129.0942194,8:30,18:00,,
부산광역시 수영구,망미1동행정복지센터,부산광역시 수영구 연수로315번길 23(망미동),망미1동행정복지센터 내,35.17342406,129.1048372,9:00,18:00,,
경상남도 진주시,평거동행정복지센터,경상남도 진주시 평거로40번길 5 (평거동),평거동행정복지센터 입구(전용부스),35.17381245,128.0653964,0:00,24:00:00,0:00,24:00:00
경상남도 창원시,월영동행정복지센터,"경상남도 창원시 마산합포구 월영마을로 3, 월영동행정복지센터 (월영동)",1층 민원실,35.17421504,128.5581021,0:00,24:00:00,0:00,24:00:00
광주광역시 북구,북구청 민원실,광주광역시 북구 우치로 77(용봉동)[북구청],민원실(1층) 내,35.17429063,126.9121245,0:00,24:00:00,0:00,24:00:00
광주광역시 광산구,월곡2동행정복지센터,"광주광역시 광산구 산정공원로72번길 21-12, 월곡2동 행정복지센터 (월곡동)",민원실 입구,35.17435442,126.8080108,9:00,18:00,,
부산광역시 사상구,덕포2동행정복지센터,"부산광역시 사상구 사상로333번길 17, 덕포2동주민센터 (덕포동)",1층 입구,35.17445339,128.9829682,9:00,18:30,,
광주광역시 북구,두암2동 행정복지센터,"광주광역시 북구 면앙로192번길 15, 두암2동 행정복지센터 (두암동)",1층 민원실 입구,35.17460153,126.9325313,8:30,18:00,,
경상남도 진주시,충무공동행정복지센터,"경상남도 진주시 충의로 145, 충무공동행정복지센터 (충무공동)",충무공동행정복지센터 입구(전용부스),35.17483252,128.1503071,0:00,24:00:00,0:00,24:00:00
광주광역시 북구,운암1동 행정복지센터,"광주광역시 북구 동운로201번길 55, 운암1동 행정복지센터 (운암동)",1층 민원실 입구,35.17486657,126.8744364,8:30,18:00,,
경상남도 창원시,월영마린애시앙,"경상남도 창원시 마산합포구 가포순환로 33(월영동, 마린애시앙부영)",1층,35.17502359,128.5625892,0:00,24:00:00,0:00,24:00:00
광주광역시 북구,북광주세무서,"광주광역시 북구 금호로 70, 북광주세무서 (운암동)",북광주세무서 1층 민원실 내 ,35.17505997,126.888107,9:00,18:00,,
부산광역시 수영구,망미2동행정복지센터,"부산광역시 수영구 수미로35번길 40, 망미2동주민센터 (망미동)",동사로비,35.17532688,129.1152597,9:00,18:00,,
경상남도 진주시,경상대학교병원,경상남도 진주시 강남로 79 (칠암동),경상대병원 본관 1층,35.1759944,128.0964924,0:00,24:00:00,0:00,24:00:00
부산광역시 연제구,연제구청,"부산광역시 연제구 연제로 2(연산동, 연제구청)",1층 외부부스,35.17621174,129.0797456,0:00,24:00:00,0:00,24:00:00
부산광역시 연제구,연제구청 민원실,"부산광역시 연제구 연제로 2, 연제구청 (연산동)",1층 민원안내센터 옆,35.17621174,129.0797456,8:00,18:00,,
광주광역시 북구,삼익아파트 관리사무소,광주광역시 북구 유림로 175(동림동)[삼익아파트 관리사무소],관리사무소 앞,35.1773946,126.862801,9:00,19:00,9:00,19:00
부산광역시 연제구,연산6동행정복지센터,"부산광역시 연제구 쌍미천로52번길 2, 연산6동 주민센터 (연산동)",동사 입구 부스,35.17742794,129.0897259,0:00,24:00:00,0:00,24:00:00
전라남도 담양군,가사문학면사무소,전라남도 담양군 가사문학면 가사문학로 1131,옥외부스,35.1774481,127.027854,0:00,24:00:00,0:00,24:00:00
경상남도 김해시,장유3동행정복지센터,경상남도 김해시 관동로 25(관동동),장유3동주민센터,35.17768479,128.8060229,6:00,24:00:00,6:00,24:00:00
광주광역시 북구,꿈나무사회복지관,"광주광역시 북구 중문로 지하 58, 꿈나무사회복지관 (우산동)",현관,35.17778062,126.920368,8:30,18:00,8:30,11:00
광주광역시 광산구,한마음새마을금고운남지점,"광주광역시 광산구 목련로273번안길 23, 한마음새마을금고운남지점 (운남동)",365 열린코너,35.17787419,126.8235865,0:00,24:00:00,0:00,24:00:00
부산광역시 해운대구,좌4동주민센터,"부산광역시 해운대구 좌동순환로 183, 좌4동주민센터 (좌동)",1층 민원실 입구,35.17788845,129.1762556,0:00,24:00:00,0:00,24:00:00
경상남도 진주시,LH한국토지주택공사,경상남도 진주시 충의로 19 (충무공동),한국토지주택공사 늘벗동 1층,35.17816978,128.1457684,6:00,22:00,9:00,18:00
부산광역시 수영구,코스트코,부산광역시 수영구 구락로 137(망미동),코스트코 1층,35.17850374,129.1152622,10:00,22:00,10:00,22:00
경상남도 진주시,국민건강보험공단 진주산청지사,"경상남도 진주시 소호로 112, 국민건강보험공단 진주산청지사 (충무공동)",1층 민원실 앞,35.17852581,128.1356717,9:00,18:00,,
부산광역시 강서구,대저2동 행정복지센터,"부산광역시 강서구 공항로811번가길 30-1, 대저2동 행정복지센터 (대저2동)",민원실 앞 방풍공간,35.17870795,128.9567887,9:00,18:00,,
경상남도 창원시,(구)월영동행정복지센터,"경상남도 창원시 마산합포구 월영남1길 13, 월영동 행정복지센터 (해운동)",(구)행정복지센터 입구,35.17927954,128.5577548,9:00,18:00,,
광주광역시 북구,홈플러스 동광주점,광주광역시 북구 동문대로 200(두암동)[홈플러스],지하1층,35.17934165,126.9304166,9:30,24:00:00,9:30,24:00:00
부산광역시 연제구,부산광역시청(1층),"부산광역시 연제구 중앙대로 1001(연산동, 부산광역시청)",시청 1층 현금지급기 옆,35.17992599,129.0750952,0:00,23:55,0:00,23:55
부산광역시 연제구,부산광역시청(2층),"부산광역시 연제구 중앙대로 1001(연산동, 부산광역시청)",2층 통합민원과(민원실) ,35.17992599,129.0750952,9:00,18:00,,
부산광역시 연제구,연산2동행정복지센터,"부산광역시 연제구 중앙대로1038번길 39, 연산2동주민센터 (연산동)",동사 입구 부스,35.17997379,129.0792948,0:00,24:00:00,0:00,24:00:00
부산광역시 연제구,거제4동행정복지센터,"부산광역시 연제구 화지로52번길 33, 거제4동 행정복지센터 (거제동)",동사 1층 출입구 앞 부스,35.18000688,129.0659179,0:00,24:00:00,0:00,24:00:00
전라남도 함평군,월야면사무소,전라남도 함평군 월야면 전하길 65[전라남도 함평군 월야면 월야리205번지 67호],월야면사무소 민원실 내,35.18005007,126.6322343,0:00,24:00:00,0:00,24:00:00
경상남도 진주시,진주시청 ,경상남도 진주시 동진로 155 (상대동),민원여권과 입구,35.18024326,128.1088228,8:00,20:00,9:00,18:00
경상남도 진주시,진주시청(실외부스),"경상남도 진주시 동진로 155, 진주시청 (상대동)",민원실 앞(전용부스),35.18024326,128.1088228,0:00,24:00:00,0:00,24:00:00
광주광역시 북구,운암도서관 KIOSK,"광주광역시 북구 북문대로 118, 운암도서관 (운암동)",1층 로비,35.18028011,126.8752222,7:00,22:00,7:00,24:00:00
광주광역시 북구,용봉동 행정복지센터,"광주광역시 북구 용주로18번길 28, 용봉동 행정복지센터 (용봉동)",1층 민원실 입구,35.18039988,126.901176,8:30,18:00,,
광주광역시 광산구,광산세무서,"광주광역시 광산구 하남대로 83, 경서드림타워 (하남동)",1층 민원봉사실,35.18051344,126.8027201,8:30,18:30,,
광주광역시 광산구,어룡신협하남지점KIOSK,광주광역시 광산구 하남대로 71 (하남동),어룡신협하남지점 1층 365코너,35.18053976,126.8013415,7:00,24:00:00,7:00,24:00:00
광주광역시 광산구,신가동행정복지센터,"광주광역시 광산구 목련로382번안길 36-1, 신가동행정복지센터 (신가동)",신가동행정복지센터 회의실 입구,35.1806716,126.8354729,9:00,18:00,,
경상남도 창원시,마산시농협,경상남도 창원시 마산합포구 해안대로 31(해운동)[경상남도 창원시 마산합포구 해운동 64번지 2호],마산시농협 365코너,35.18070248,128.5618855,8:00,23:00,8:00,23:00
광주광역시 광산구,본량동행정복지센터,"광주광역시 광산구 용진로 379, 본량동행정복지센터 (남산동)",민원실 입구,35.18118405,126.7285596,0:00,24:00:00,0:00,24:00:00
경상남도 진주시,창원지방법원 진주지원,경상남도 진주시 진양호로 303(신안동),법원 1층 안내데스크앞,35.18127228,128.0647086,9:00,18:00,,
경상남도 창원시,롯데마트 마산점,경상남도 창원시 마산합포구 신마산시장길 33(창포동3가)[경상남도 창원시 마산합포구 창포동3가 8번지 1호],1층,35.18132351,128.5607329,10:00,23:00,10:00,23:00
광주광역시 북구,농협은행 광주비엔날레지점,광주광역시 북구 비엔날레로 108(용봉동)[NH농협은행비엔날레점],365코너,35.18135257,126.8905358,8:00,22:00,8:00,22:00
전라남도 함평군,해보면,"전라남도 함평군 해보면 밀재로 1264-7, 해보면사무소",해보면 외부,35.18137397,126.6017915,0:00,24:00:00,0:00,24:00:00
부산광역시 부산진구,초읍동주민센터,"부산광역시 부산진구 새싹로 284, 초읍동주민센터(성지문화복합센터) (초읍동)",주민센터 민원실 입구,35.18145343,129.0473602,0:00,24:00:00,0:00,24:00:00
광주광역시 북구,문화동 행정복지센터,"광주광역시 북구 군왕로 233, 문화동 행정복지센터 (각화동)",1층 민원실 입구,35.18149798,126.9368604,8:30,18:00,,
부산광역시 해운대구,복합문화센터,부산광역시 해운대구 센텀중앙로 170(재송동)[부산광역시 해운대구 재송동 1192번지 문화복합센터],입구,35.1820882,129.1214141,0:00,24:00:00,0:00,24:00:00
경상남도 진주시,진주세무서,경상남도 진주시 진주대로908번길 15(칠암동),1층 민원실 입구 왼쪽,35.18236746,128.0914282,9:00,18:00,,
광주광역시 북구,운암3동 행정복지센터,"광주광역시 북구 서강로 129, 운암3동 행정복지센터 (운암동)",1층 민원실 입구,35.18276538,126.8743091,8:30,18:00,,
광주광역시 북구,광주농협 충효지점,광주광역시 북구 송강로 393(충효동)[광주농협 충효지소],충효지소 내,35.18288071,126.9998543,9:00,16:30,,
경상남도 하동군,옥종면 무인민원발급기,경상남도 하동군 옥종면 덕천로 3[경상남도 하동군 옥종면 청룡리119번지 4호],옥종면사무소 내,35.18308274,127.8796099,8:00,19:00,9:00,18:00
경상남도 진주시,천전동행정복지센터,경상남도 진주시 망경남길44번길 22 (망경동),천전동행정복지센터 입구,35.18314982,128.0854976,0:00,24:00:00,0:00,24:00:00
경상남도 창원시,마산합포도서관,경상남도 창원시 마산합포구 월영동16길 22(해운동)[경상남도 창원시 마산합포구 해운동 61번지],1층 입구,35.18329531,128.5626645,0:00,24:00:00,0:00,24:00:00
경상남도 진주시,칠암현장민원실,경상남도 진주시 강남로177번길 30-7 (칠암동),칠암현장민원실 앞(전용부스),35.18356047,128.0918027,0:00,24:00:00,0:00,24:00:00
부산광역시 해운대구,송정동 행정복지센터,"부산광역시 해운대구 송정중앙로21번길 20, 송정동주민센터 (송정동)",1층 민원실 입구,35.18366028,129.2037147,9:00,18:00,,
광주광역시 북구,광주원예농협,광주광역시 북구 동문대로 260(각화동),365코너,35.18390367,126.9357801,5:00,23:50,5:00,23:50
부산광역시 연제구,거제3동행정복지센터,"부산광역시 연제구 거제대로 180, 거제3동 행정복지센터 (거제동)",동사 입구 부스,35.18428551,129.071201,0:00,24:00:00,0:00,24:00:00
광주광역시 북구,문흥2동 행정복지센터,"광주광역시 북구 문산로 25, 문흥2동 행정복지센터 (문흥동)",1층 민원실 입구,35.18432313,126.9219196,8:30,18:00,,
경상남도 진주시,신안동행정복지센터,경상남도 진주시 진양호로 360 (신안동),신안동행정복지센터 입구(전용부스),35.18450556,128.0690127,0:00,24:00:00,0:00,24:00:00
부산광역시 해운대구,재송1동 행정복지센터,"부산광역시 해운대구 재반로63번길 23, 재송1동 행정복지센터 (재송동)",1층 새마을문고 앞,35.18462961,129.1251954,9:00,18:00,,
광주광역시 광산구,광주비아농협풍영지점,광주광역시 광산구 수등로 264 (신가동),광주비아농협풍영지점 365코너,35.18491655,126.8378229,7:00,23:00,7:00,23:00
부산광역시 연제구,연산9동행정복지센터,"부산광역시 연제구 과정로164번길 38, 연산9동 행정복지센터 (연산동)",지하1층 주차장,35.1859033,129.1093819,0:00,24:00:00,0:00,24:00:00
부산광역시 연제구,개인택시운송조합,부산광역시 연제구 월드컵대로 399(거제동),개인택시운송조합 안 새마을금고,35.18601331,129.0559741,9:00,16:30,,
부산광역시 연제구,연산4동행정복지센터,"부산광역시 연제구 쌍미천로151번길 42, 연산4동주민센터 (연산동)",1층 민원실 내,35.18628827,129.0849277,9:00,18:00,,
경상남도 창원시,SMG연세병원,"경상남도 창원시 마산합포구 3·15대로 76, 합포의료재단 (월남동2가)",병원 정문 입구,35.18631476,128.5616013,8:00,23:00,8:00,23:00
광주광역시 북구,문흥1동 행정복지센터,"광주광역시 북구 대천로 140-3, 문흥1동 행정복지센터 (문흥동)",1층 민원실 입구,35.18676706,126.9216312,8:30,18:00,,
부산광역시 사상구,모라1동행정복지센터,"부산광역시 사상구 모라로 93, 모라1동 행정복지센터 (모라동)",1층 로비,35.18700326,128.9899794,9:00,18:30,,
광주광역시 북구,동림동 행정복지센터,"광주광역시 북구 북문대로 236, 동림동 행정복지센터 (동림동)",1층 민원실 입구,35.18702965,126.8666034,8:30,18:00,,
부산광역시 연제구,거제2동행정복지센터,"부산광역시 연제구 아시아드대로22번길 19, 거제2동주민센터 (거제동)",동사 입구 부스,35.18776194,129.0702873,0:00,24:00:00,0:00,24:00:00
경상남도 하동군,화개면 무인민원발급기,경상남도 하동군 화개면 원탑1길 6,본관 입구 ,35.18821514,127.6252572,8:00,19:00,9:00,18:00
부산광역시 연제구,한양류마디병원,"부산광역시 연제구 과정로 272, 한양류마디병원 1층 (연산동)",1층 안내데스크 옆,35.18826841,129.0977109,6:00,23:00,6:00,23:00
경상남도 창원시,성주동행정복지센터,경상남도 창원시 성산구 공단로 735(성주동),성주동행정복지센터 현관입구,35.18900446,128.6952225,0:00,24:00:00,0:00,24:00:00
광주광역시 북구,오치1동 행정복지센터,"광주광역시 북구 우치로274번길 48, 오치1동 행정복지센터 (오치동)",1층 민원실 입구,35.18910245,126.9081325,8:30,18:00,,
광주광역시 북구,광주농협 매곡동지점,광주광역시 북구 매곡로 48(매곡동),농협 내부,35.18941628,126.8946035,9:00,20:00,9:00,20:00
광주광역시 북구,매곡동 행정복지센터,"광주광역시 북구 매곡로69번길 25, 매곡동 행정복지센터 (매곡동)",1층 민원실 입구,35.18963443,126.8920703,8:30,18:00,,
경상남도 진주시,동부보훈회관(구 하대1동주민센터),경상남도 진주시 도동로215번길 18 (하대동),회관 입구(전용부스),35.18971098,128.1202776,0:00,24:00:00,0:00,24:00:00
부산광역시 연제구,연산1동행정복지센터,"부산광역시 연제구 연동로8번길 66, 연산1동주민센터 (연산동)",민원실 내부,35.18998727,129.0904228,8:00,19:00,,
광주광역시 북구,오치2동 행정복지센터,"광주광역시 북구 서하로183번길 29, 오치2동 행정복지센터 (오치동)",1층 민원실 입구,35.19004616,126.9004859,8:30,18:00,,
부산광역시 연제구,부산지방법원 등기국,"부산광역시 연제구 거제대로 261, 부산지방법원 등기국 2층 (거제동)",현장민원실 옆(2층),35.19046394,129.0759558,9:00,18:00,,
경상남도 진주시,서부보건지소,경상남도 진주시 진양호로 476 (남성동),보건민원센터 입구,35.19079371,128.0776716,9:00,18:00,,
광주광역시 광산구,우리은행 신창지점KIOSK,"광주광역시 광산구 장신로 253, 우리은행 신창점 (신창동)",우리은행 신창지점 1층 365코너,35.19090903,126.8378937,7:00,23:00,7:00,23:00
광주광역시 광산구,한마음새마을금고장덕지점,광주광역시 광산구 풍영로 224(장덕동),1층 365코너,35.1914394,126.8144776,7:00,23:00,7:00,23:00
경상남도 진주시,중앙동행정복지센터,경상남도 진주시 진주대로1032번길 14 (동성동),중앙동행정복지센터 앞(전용부스),35.19206824,128.0861862,0:00,24:00:00,0:00,24:00:00
부산광역시 연제구,부산지방법원,"부산광역시 연제구 법원로 31(거제동, 부산지방법원)",1층 통합열람복사실 안,35.19253531,129.0732651,9:00,18:00,,
부산광역시 연제구,동래세무서,"부산광역시 연제구 거제천로269번길 16, 동래세무서 (거제동)",1층 민원봉사실,35.19262259,129.0868611,9:00,18:00,,
부산광역시 사상구,늘푸른사상새마을금고 제3지점,부산광역시 사상구 백양대로 969 (모라동),ATM기 부스 안,35.19271504,128.992446,7:00,24:00:00,7:00,24:00:00
경상남도 진주시,진주경찰서,"경상남도 진주시 비봉로24번길 3, 진주경찰서 (중안동)",진주경찰서 민원실 입구,35.19294417,128.0813069,9:00,18:00,9:00,18:00
경상남도 창원시,창원출입국외국인사무소,경상남도 창원시 마산합포구 제2부두로 30(신포동1가)[경상남도 창원시 마산합포구 신포동1가 86번지 1호],1층 민원실내,35.19481331,128.5732184,9:00,18:00,,
부산광역시 북구,구포3동주민센터,부산광역시 북구 시랑로118번길 23(구포동),민원실,35.19493176,129.0087921,0:00,24:00:00,0:00,24:00:00
광주광역시 광산구,신창동행정복지센터,"광주광역시 광산구 왕버들로 291, 신창동 주민센터 (신창동)",1층 민원실입구,35.1955816,126.8407125,0:00,24:00:00,0:00,24:00:00
부산광역시 해운대구,반여2동행정복지센터,"부산광역시 해운대구 재반로211번길 9, 반여2동주민센터 (반여동)",행정복지센터 입구,35.1958884,129.1301394,0:00,24:00:00,0:00,24:00:00
부산광역시 강서구,가락동 행정복지센터,"부산광역시 강서구 가락대로 1476, 가락동 행정복지센터 (죽림동)",민원실 앞 방풍공간,35.19640658,128.9018076,9:00,18:00,,
경상남도 창원시,마산합포구청,경상남도 창원시 마산합포구 3·15대로 210(중앙동3가)[경상남도 창원시 마산합포구 중앙동3가 4번지 11호],민원지적과 입구,35.19695427,128.5678636,0:00,24:00:00,0:00,24:00:00
광주광역시 광산구,수완동행정복지센터(1),광주광역시 광산구 장덕로 158(수완동),수완동행정복지센터 민원실 내,35.19707398,126.8257309,8:30,18:00,,
광주광역시 광산구,수완동행정복지센터(2),광주광역시 광산구 장덕로 158 (수완동),수완동행정복지센터 입구,35.19707398,126.8257309,0:00,24:00:00,0:00,24:00:00
경상남도 김해시,장유2동주민센터,경상남도 김해시 능동로 43(삼문동),장유2동주민센터 옥외부스,35.19716149,128.7976939,6:00,24:00:00,6:00,24:00:00
부산광역시 동래구,안락2동행정복지센터,"부산광역시 동래구 명안로18번길 103, 안락제2동주민센터 (안락동)",주차장 부스 내,35.19776201,129.1100722,0:00,24:00:00,0:00,24:00:00
전라남도 구례군,구례군 토지면,"전라남도 구례군 토지면 섬진강대로 5040, 토지면사무소",토지면사무소 우측 입구,35.19785657,127.5262201,0:00,24:00:00,0:00,24:00:00
경상남도 창원시,이마트 마산점,경상남도 창원시 마산합포구 서성로 3(중앙동3가)[경상남도 창원시 마산합포구 중앙동3가 4번지 1호],1층,35.19788423,128.5699522,10:00,23:00,10:00,23:00
경상남도 창원시,창원지방법원 마산지원 ,경상남도 창원시 마산합포구 완월동7길 16(장군동4가)[경상남도 창원시 마산합포구 장군동4가 26번지 87호],1층 종합민원실내 ,35.19796258,128.5663249,9:00,18:00,,
경상남도 창원시,성산구청,경상남도 창원시 성산구 창원대로 1086(성주동),성산구청 1층 민원실입구,35.19830142,128.7027961,0:00,24:00:00,0:00,24:00:00
경상남도 진주시,수곡면사무소,"경상남도 진주시 수곡면 곤수로 972, 수곡면사무소",면사무소 입구,35.19864353,127.9321662,0:00,24:00:00,0:00,24:00:00
부산광역시 동래구,사직2동행정복지센터,"부산광역시 동래구 사직북로63번길 22, 사직제2동행정복지센터 (사직동)",민원실 ,35.19918578,129.0575145,9:00,18:00,,
경상남도 창원시,창원경상대학교병원 ,경상남도 창원시 성산구 삼정자로 11(성주동),창원경상대학교병원 본관 1층 출입구 왼쪽 진료협력센터 앞,35.19926241,128.707849,0:00,24:00:00,0:00,24:00:00
광주광역시 북구,삼각동 행정복지센터,"광주광역시 북구 설죽로 447, 삼각동 행정복지센터 (삼각동)",1층 민원실 입구,35.19933977,126.899522,8:30,18:00,,
경상남도 창원시,성주민원센터,경상남도 창원시 성산구 외리로14번길 18(성주동),1층 엘리베이터 앞,35.19939764,128.7110496,9:00,20:00,,
부산광역시 동래구,사직3동행정복지센터,"부산광역시 동래구 아시아드대로154번길 79, 사직제3동행정복지센터 (사직동)",민원실,35.19943913,129.0694323,9:00,18:00,,
부산광역시 해운대구,반여3동 행정복지센터,"부산광역시 해운대구 재반로256번길 29-70, 반여3동 행정복지센터 (반여동)",민원실 출입구,35.20099393,129.1335055,9:00,18:00,,
경상남도 김해시,장유1동행정복지센터,경상남도 김해시 금관대로 579(무계동),장유1동주민센터 옥외부스,35.20125646,128.8127538,0:00,24:00:00,0:00,24:00:00
경상남도 김해시,장유1동행정복지센터(민원실),경상남도 김해시 금관대로 579(무계동),장유1동주민센터 내,35.20125646,128.8127538,8:50,18:00,,
경상남도 창원시,롯데백화점 마산점,경상남도 창원시 마산합포구 동서동로 18(신포동2가)[경상남도 창원시 마산합포구 신포동2가 28번지],1층 정문 현관,35.20147927,128.5734025,8:00,23:00,8:00,23:00
부산광역시 북구,구포2동주민센터,"부산광역시 북구 낙동북로681번길 23, 구포2동 행정복지센터 (구포동)",1층,35.20167701,128.9994237,0:00,24:00:00,0:00,24:00:00
전라남도 구례군,구례군청 종합민원실,전라남도 구례군 구례읍 봉성로 1,종합민원과 내 입구 좌측,35.20190636,127.4639001,0:00,24:00:00,0:00,24:00:00
경상남도 창원시,성산도서관,경상남도 창원시 성산구 외리로 47(남산동),성산도서관 본관 도서반납기기 옆,35.20206387,128.7072407,0:00,24:00:00,0:00,24:00:00
부산광역시 동래구,온천3동행정복지센터,"부산광역시 동래구 사직북로28번길 153, 온천제3동행정복지센터 (온천동)",1층 입구 우측,35.20341701,129.0654913,0:00,24:00:00,0:00,24:00:00
광주광역시 북구,북광주신협,광주광역시 북구 설죽로 497 (일곡동),"광주광역시 북구 설죽로 497(일곡동, 북광주신협본점365코너)",35.20350558,126.8980454,8:00,23:00,8:00,23:00
경상남도 창원시,현대위아 이룸재,"경상남도 창원시 성산구 정동로162번길 4, 현대위아 복지관 (남산동)",1층 출입구,35.20440748,128.6916544,8:00,23:00,,
부산광역시 동래구,메가마트,부산광역시 동래구 충렬대로 197(명륜동),메가마트 후문 출입구,35.20455569,129.0811694,8:00,24:00:00,8:00,24:00:00
경상남도 진주시,초장동행정복지센터,경상남도 진주시 초장로14번길 14 (초전동),초장동행정복지센터 입구(전용부스),35.20458159,128.1146088,0:00,24:00:00,0:00,24:00:00
경상남도 창원시,KB국민은행 마산종합금융센터,경상남도 창원시 마산합포구 남성로 152(동성동)[경상남도 창원시 마산합포구 동성동 102번지 2호],365코너,35.20507206,128.577315,8:00,23:00,8:00,23:00
부산광역시 동래구,동래구청민원실2,"부산광역시 동래구 충렬대로237번길 93, 동래구청 (복천동)",동래구청 1층 민원실,35.20509875,129.0837235,8:30,18:00,,
부산광역시 동래구,동래구청 민원발급실,"부산광역시 동래구 충렬대로237번길 93, 동래구청 (복천동)",동래구청 후문 무인민원발급실,35.20509875,129.0837235,0:00,24:00:00,0:00,24:00:00
경상남도 창원시,웅남동행정복지센터,경상남도 창원시 성산구 신촌로 50(신촌동),웅남동행정복지센터 현관입구,35.20533834,128.6271677,0:00,24:00:00,0:00,24:00:00
광주광역시 북구,북광주농협 양산동지점,광주광역시 북구 하서로 342(양산동)[북광주농협 양산동지점],365코너,35.20536853,126.8737792,8:00,22:00,8:00,22:00
경상남도 창원시,자산동행정복지센터,경상남도 창원시 마산합포구 자산동5길 1(자산동)[경상남도 창원시 마산합포구 자산동 140번지 3호],입구,35.20550727,128.5654771,0:00,24:00:00,0:00,24:00:00
부산광역시 동래구,미남역,"부산광역시 동래구 아시아드대로 지하232, 도시철도 미남역 (온천동)",개찰구,35.20559695,129.0681223,5:00,24:00:00,5:00,24:00:00
경상남도 창원시,SK테크노파크 ,경상남도 창원시 성산구 완암로 50(성산동),SK테크노파크 1층 현관,35.2056243,128.6637528,0:00,24:00:00,0:00,24:00:00
광주광역시 북구,일곡동 행정복지센터,"광주광역시 북구 설죽로 525, 일곡동 행정복지센터 (일곡동)",1층 민원실 입구,35.20602917,126.8972774,8:30,18:00,,
부산광역시 북구,구포1동 행정복지센터,"부산광역시 북구 낙동대로1762번길 75, 구포1동 행정복지센터 (구포동)",현관,35.20641242,129.0011117,0:00,24:00:00,0:00,24:00:00
